[
  {
    "lat": 46.29248,
    "lng": 7.53814,
    "name": "Sierre : Prieuré du Sacré-Cœur",
    "address": "Route des Lacs 25",
    "postalCode": "3960",
    "city": "Sierre",
    "country": "Switzerland",
    "phone": "+41 27 455 53 22",
    "email": "sierre@fsspx.ch",
    "website": "",
    "tags": [
      "Résidence de prêtres",
      "Messe dominicale",
      "Messe en semaine"
    ]
  },
  {
    "lat": 47.04659,
    "lng": 8.55155,
    "name": "Goldau : Chapelle Marie Secours des chrétiens",
    "address": "Hügelweg 8",
    "postalCode": "6410",
    "city": "Goldau",
    "country": "Switzerland",
    "phone": "+41 41 252 08 35",
    "email": "lucerne@fsspx.ch",
    "website": "",
    "tags": [
      "Messe dominicale",
      "Messe en semaine"
    ]
  },
  {
    "lat": 46.18609,
    "lng": 6.14276,
    "name": "Carouge : Oratoire Saint-Joseph",
    "address": "Avenue du Cardinal Mermillod 9",
    "postalCode": "1227",
    "city": "Carouge",
    "country": "Switzerland",
    "phone": "+41 22 792 23 19",
    "email": "geneve@fsspx.ch",
    "website": "https://geneve.fsspx.ch/fr",
    "tags": [
      "Messe dominicale",
      "Messe en semaine"
    ]
  },
  {
    "lat": 47.23624,
    "lng": 9.0143,
    "name": "Gommiswald: Chapelle Saint Meinrad",
    "address": "Hof 15",
    "postalCode": "8737",
    "city": "Gommiswald",
    "country": "Switzerland",
    "phone": "+41 81 720 47 50",
    "email": "wangs@isv-schulen.ch",
    "website": "",
    "tags": [
      "Messe dominicale",
      "Messe en semaine"
    ]
  },
  {
    "lat": 46.48178,
    "lng": 6.80184,
    "name": "Chexbres : Carmel Marie-Reine des Anges",
    "address": "Chemin des Curnilles 30",
    "postalCode": "1071",
    "city": "Chexbres",
    "country": "Switzerland",
    "phone": "+41 21 946 29 10",
    "email": "",
    "website": "",
    "tags": [
      "Messe dominicale",
      "Messe en semaine",
      "Couvent"
    ]
  },
  {
    "lat": 47.16735,
    "lng": 8.60575,
    "name": "Menzingen : Prieuré Notre-Dame de l'Annonciation (Maison générale)",
    "address": "Schloss Schwandegg",
    "postalCode": "6313",
    "city": "Menzingen",
    "country": "Switzerland",
    "phone": "+41 41 757 10 50",
    "email": "info@fsspx.org",
    "website": "https://www.fsspx.org/de",
    "tags": [
      "Maison générale",
      "Résidence de prêtres",
      "Messe dominicale",
      "Messe en semaine"
    ]
  },
  {
    "lat": 46.56813,
    "lng": 7.07465,
    "name": "Enney : Maison \"Domus Dei\"",
    "address": "Route de la Vudalla 30",
    "postalCode": "1667",
    "city": "Enney",
    "country": "Switzerland",
    "phone": "+41 26 921 11 38",
    "email": "enney@fsspx.ch",
    "website": "",
    "tags": [
      "Résidence de prêtres",
      "Maison de retraite",
      "Messe dominicale",
      "Messe en semaine"
    ]
  },
  {
    "lat": 47.41785,
    "lng": 9.35014,
    "name": "St. Gall : Chapelle Saint Pie X",
    "address": "Zürcherstrasse 68A",
    "postalCode": "9000",
    "city": "St. Gallen",
    "country": "Switzerland",
    "phone": "+41 71 913 27 30",
    "email": "wil@fsspx.ch",
    "website": "https://wil.fsspx.ch/",
    "tags": [
      "Messe dominicale",
      "Messe en semaine"
    ]
  },
  {
    "lat": 46.31376,
    "lng": 7.97941,
    "name": "Glis : Chapelle Saint-Maurice",
    "address": "Wierystrasse 60",
    "postalCode": "3902",
    "city": "Glis",
    "country": "Switzerland",
    "phone": "+41 027 455 53 22",
    "email": "jj.udressy@fsspx.email",
    "website": "",
    "tags": [
      "Messe dominicale",
      "Messe en semaine"
    ]
  },
  {
    "lat": 46.81703,
    "lng": 7.13885,
    "name": "Granges-Paccot : Chapelle Notre-Dame Gardienne de la Foi",
    "address": "Route du Coteau, 6",
    "postalCode": "1763",
    "city": "Granges-Paccot",
    "country": "Switzerland",
    "phone": "+41 26 921 11 38",
    "email": "enney@fsspx.ch",
    "website": "",
    "tags": [
      "Messe dominicale",
      "Messe en semaine"
    ]
  },
  {
    "lat": 46.18233,
    "lng": 6.09947,
    "name": "Onex : Ecole - Chapelle de l'Ascension",
    "address": "Rue Gaudy-Le-Fort 23",
    "postalCode": "1213",
    "city": "Onex",
    "country": "Switzerland",
    "phone": "+41 22 793 42 11",
    "email": "geneve@fsspx.ch",
    "website": "https://geneve.fsspx.ch/fr",
    "tags": [
      "Messe en semaine"
    ]
  },
  {
    "lat": 47.35893,
    "lng": 7.34373,
    "name": "Delémont : Eglise du Saint-Esprit",
    "address": "Rue de la Prévôté 1",
    "postalCode": "2800",
    "city": "Delémont",
    "country": "Switzerland",
    "phone": "+41 62 209 16 16",
    "email": "rickenbach@fsspx.ch",
    "website": "https://rickenbach.fsspx.ch",
    "tags": [
      "Messe dominicale",
      "Messe en semaine"
    ]
  },
  {
    "lat": 46.51042,
    "lng": 6.63783,
    "name": "Lausanne : Chapelle de la Présentation de Marie",
    "address": "Chemin de Montolivet 19",
    "postalCode": "1006",
    "city": "Lausanne",
    "country": "Switzerland",
    "phone": "+41 26 505 26 05",
    "email": "lausanne@fsspx.ch",
    "website": "https://lausanne.fsspx.ch",
    "tags": [
      "Messe dominicale",
      "Messe en semaine"
    ]
  },
  {
    "lat": 46.15657,
    "lng": 7.20639,
    "name": "Séminaire International Saint-Pie X",
    "address": "Chemin du Séminaire 5",
    "postalCode": "1908",
    "city": "Riddes",
    "country": "Switzerland",
    "phone": "+41 27 305 10 80",
    "email": "info.econe@fsspx.ch",
    "website": "https://econe.fsspx.org/fr",
    "tags": [
      "Séminaire",
      "Messe dominicale",
      "Messe en semaine"
    ]
  },
  {
    "lat": 47.46393,
    "lng": 9.06305,
    "name": "Wil : Prieuré de la Sainte Famille",
    "address": "St. Gallerstrasse 65",
    "postalCode": "9500",
    "city": "Wil",
    "country": "Switzerland",
    "phone": "+41 71 913 27 30",
    "email": "wil@fsspx.ch",
    "website": "https://wil.fsspx.ch",
    "tags": [
      "Résidence de prêtres",
      "Messe dominicale",
      "Messe en semaine"
    ]
  },
  {
    "lat": 46.18111,
    "lng": 6.10965,
    "name": "Onex : Prieuré Saint-François-de-Sales",
    "address": "Chemin de la Genévrière 10",
    "postalCode": "1213",
    "city": "Onex",
    "country": "Switzerland",
    "phone": "+41 22 792 23 19",
    "email": "geneve@fsspx.ch",
    "website": "https://fsspx.ch/onex-prieure-saint-francois-sales-31995",
    "tags": [
      "Résidence de prêtres"
    ]
  },
  {
    "lat": 46.22455,
    "lng": 7.35754,
    "name": "Sion : Eglise de la Sainte Famille",
    "address": "Rue de la Bourgeoisie 9",
    "postalCode": "1950",
    "city": "Sion",
    "country": "Switzerland",
    "phone": "+41 27 455 53 22",
    "email": "sierre@fsspx.ch",
    "website": "",
    "tags": [
      "Messe dominicale",
      "Messe en semaine"
    ]
  },
  {
    "lat": 47.05114,
    "lng": 8.27045,
    "name": "Lucerne : Prieuré et église Saint-Joseph",
    "address": "Luzernerstrasse 90",
    "postalCode": "6014",
    "city": "Luzern",
    "country": "Switzerland",
    "phone": "+41 41 252 08 35",
    "email": "lucerne@fsspx.ch",
    "website": "",
    "tags": [
      "Résidence de prêtres",
      "Messe dominicale",
      "Messe en semaine"
    ]
  },
  {
    "lat": 46.22125,
    "lng": 7.0155,
    "name": "Noviciat Sainte Thérèse",
    "address": "Route du Village Suisse 8",
    "postalCode": "1892",
    "city": "Lavey-Village",
    "country": "Switzerland",
    "phone": "+41 27 761 21 28",
    "email": "novtherese@fsspx.ch",
    "website": "",
    "tags": [
      "Messe en semaine"
    ]
  },
  {
    "lat": 46.43624,
    "lng": 6.91129,
    "name": "Montreux : Eglise Notre-Dame de Lépante",
    "address": "Rue de la Gare 24",
    "postalCode": "1820",
    "city": "Montreux",
    "country": "Switzerland",
    "phone": "+41 26 505 26 05",
    "email": "corsier@fsspx.ch",
    "website": "",
    "tags": [
      "Messe dominicale",
      "Messe en semaine"
    ]
  },
  {
    "lat": 47.02779,
    "lng": 9.43192,
    "name": "Wangs : Institut Sancta Maria",
    "address": "Vorderbergstrasse 2",
    "postalCode": "7323",
    "city": "Wangs",
    "country": "Switzerland",
    "phone": "+41 81 720 47 50",
    "email": "wangs@isv-schulen.ch",
    "website": "https://wangs.fsspx.ch",
    "tags": [
      "Résidence de prêtres",
      "Messe dominicale",
      "Messe en semaine"
    ]
  },
  {
    "lat": 47.3197,
    "lng": 9.56431,
    "name": "Oberriet : Prieuré Saint-Charles Borromée",
    "address": "Staatsstrasse 87",
    "postalCode": "9463",
    "city": "Oberriet",
    "country": "Switzerland",
    "phone": "+41 71 761 27 26",
    "email": "oberriet@fsspx.ch",
    "website": "",
    "tags": [
      "Résidence de prêtres",
      "Messe dominicale",
      "Messe en semaine"
    ]
  },
  {
    "lat": 47.40378,
    "lng": 8.44603,
    "name": "Schlieren : Chapelle du Christ-Roi",
    "address": "Rohrstrasse 7",
    "postalCode": "8952",
    "city": "Schlieren",
    "country": "Switzerland",
    "phone": "+41 41 252 08 35",
    "email": "lucerne@fsspx.ch",
    "website": "",
    "tags": [
      "Messe dominicale",
      "Messe en semaine"
    ]
  },
  {
    "lat": 47.2887,
    "lng": 7.71493,
    "name": "Oensingen : Eglise du Sacré-Coeur",
    "address": "Staadackerstrasse 4",
    "postalCode": "4702",
    "city": "Oensingen",
    "country": "Switzerland",
    "phone": "+41 62 209 16 16",
    "email": "rickenbach@fsspx.ch",
    "website": "https://rickenbach.fsspx.ch",
    "tags": [
      "Messe dominicale",
      "Messe en semaine"
    ]
  },
  {
    "lat": 47.34011,
    "lng": 7.85766,
    "name": "Rickenbach : Prieuré Saint Nicolas de Flüe",
    "address": "Solothurnerstrasse 11",
    "postalCode": "4613",
    "city": "Rickenbach",
    "country": "Switzerland",
    "phone": "+41 62 209 16 16",
    "email": "rickenbach@fsspx.ch",
    "website": "https://rickenbach.fsspx.ch",
    "tags": [
      "Maison de district",
      "Résidence de prêtres",
      "Messe en semaine"
    ]
  },
  {
    "lat": 46.24679,
    "lng": 6.96077,
    "name": "Monthey : Chapelle Saint Antoine",
    "address": "Avenue du Simplon 100 E",
    "postalCode": "1870",
    "city": "Monthey",
    "country": "Switzerland",
    "phone": "+41 24 481 66 10",
    "email": "al.maret@fsspx.email",
    "website": "",
    "tags": [
      "Messe dominicale",
      "Messe en semaine"
    ]
  },
  {
    "lat": 47.57287,
    "lng": 7.59559,
    "name": "Bâle : Chapelle Sainte Thérèse de l'Enfant-Jésus",
    "address": "Schliengerweg 33",
    "postalCode": "4057",
    "city": "Basel",
    "country": "Switzerland",
    "phone": "+41 62 209 16 16",
    "email": "rickenbach@fsspx.ch",
    "website": "https://rickenbach.fsspx.ch",
    "tags": [
      "Messe dominicale",
      "Messe en semaine"
    ]
  },
  {
    "lat": -34.48962,
    "lng": -58.50287,
    "name": "Capilla Nuestra Señora de Fatima",
    "address": "Rodríguez Peña 125",
    "postalCode": "1640",
    "city": "Martinez",
    "country": "Argentina",
    "phone": "+54 11 47 93 36 29",
    "email": "",
    "website": "https://www.fsspx-sudamerica.org/",
    "tags": [
      "Misa dominical",
      "Misa entre semana"
    ]
  },
  {
    "lat": -24.17938,
    "lng": -65.28327,
    "name": "Capilla Nuestra Señora de Fatima",
    "address": "Capitan Cau y Rolando Corte",
    "postalCode": "4600",
    "city": "San Salvador de Jujuy",
    "country": "Argentina",
    "phone": "+54 387 436 55 80",
    "email": "",
    "website": "https://www.fsspx-sudamerica.org/",
    "tags": [
      "Misa dominical",
      "Misa entre semana"
    ]
  },
  {
    "lat": -39.23741,
    "lng": -64.34938,
    "name": "Capilla Corazón Inmaculado de María",
    "address": "",
    "postalCode": "",
    "city": "Pichi-Mahuida",
    "country": "Argentina",
    "phone": "+54 11 4383 0873",
    "email": "",
    "website": "https://www.fsspx-sudamerica.org/",
    "tags": [
      "Misa dominical"
    ]
  },
  {
    "lat": -33.30901,
    "lng": -66.3306,
    "name": "Capilla San Luis",
    "address": "",
    "postalCode": "",
    "city": "San Luis",
    "country": "Argentina",
    "phone": "+54 261  435 00 48",
    "email": "",
    "website": "https://www.fsspx-sudamerica.org/",
    "tags": [
      "Misa dominical"
    ]
  },
  {
    "lat": -26.87288,
    "lng": -65.31715,
    "name": "Capilla San Pablo",
    "address": "Villa Nuges, San Pablo",
    "postalCode": "",
    "city": "Ex Ingenio",
    "country": "Argentina",
    "phone": "+54 3457 481 634",
    "email": "",
    "website": "https://www.fsspx-sudamerica.org/",
    "tags": [
      "Misa dominical",
      "Misa entre semana"
    ]
  },
  {
    "lat": -34.49043,
    "lng": -58.95846,
    "name": "Noviciado Santa Teresita del Niño Jesús",
    "address": "",
    "postalCode": "1629",
    "city": "Pilar",
    "country": "Argentina",
    "phone": "+54 9113 264 89 19",
    "email": "sudamerica@fsspx.email",
    "website": "https://www.fsspx-sudamerica.org/",
    "tags": [
      "Misa dominical",
      "Misa entre semana",
      "Convento"
    ]
  },
  {
    "lat": -37.36726,
    "lng": -59.13166,
    "name": "Capilla San Benito de Nursia",
    "address": "",
    "postalCode": "B7000",
    "city": "Tandil",
    "country": "Argentina",
    "phone": "+54 11  47 92 15 56",
    "email": "",
    "website": "https://www.fsspx-sudamerica.org/",
    "tags": [
      "Misa entre semana"
    ]
  },
  {
    "lat": -31.63977,
    "lng": -64.45557,
    "name": "Priorato San Pio V- Capilla Corazón Inmaculado",
    "address": "Calle Buena Esperanza 824",
    "postalCode": "5186",
    "city": "Alta Gracia",
    "country": "Argentina",
    "phone": "",
    "email": "",
    "website": "https://www.fsspx-sudamerica.org/",
    "tags": [
      "Residencia de sacerdotes",
      "Misa dominical",
      "Misa entre semana"
    ]
  },
  {
    "lat": -34.65618,
    "lng": -58.46641,
    "name": "Capilla San José",
    "address": "Zinny, n° 2095",
    "postalCode": "1824",
    "city": "Laferrere, La Matanza",
    "country": "Argentina",
    "phone": "+54 11  43 83 08 73",
    "email": "",
    "website": "https://www.fsspx-sudamerica.org/",
    "tags": [
      "Misa dominical"
    ]
  },
  {
    "lat": -24.80092,
    "lng": -65.39813,
    "name": "Capilla Nuestra Señora del Carmen",
    "address": "Passaje Miguel Araoz 398",
    "postalCode": "4400",
    "city": "Salta",
    "country": "Argentina",
    "phone": "+54 3874 26 06 18",
    "email": "",
    "website": "https://www.fsspx-sudamerica.org/",
    "tags": [
      "Misa dominical",
      "Misa entre semana"
    ]
  },
  {
    "lat": -27.80532,
    "lng": -64.26122,
    "name": "Oratorio Santiago Apostol",
    "address": "Calle Cordoba 60",
    "postalCode": "",
    "city": "Santiago del Estero, Capital",
    "country": "Argentina",
    "phone": "+54 3457 481 634",
    "email": "",
    "website": "https://www.fsspx-sudamerica.org/",
    "tags": [
      "Misa dominical"
    ]
  },
  {
    "lat": -37.98456,
    "lng": -57.54637,
    "name": "Oratorio N. Sra del Pilar",
    "address": "",
    "postalCode": "",
    "city": "Mar del Plata",
    "country": "Argentina",
    "phone": "+54 11  43 83 08 73",
    "email": "",
    "website": "https://www.fsspx-sudamerica.org/",
    "tags": [
      "Misa dominical",
      "Misa entre semana"
    ]
  },
  {
    "lat": -34.66129,
    "lng": -58.84971,
    "name": "Seminario Nuestra Señora Corredentora",
    "address": "Antofagasta 3830",
    "postalCode": "1744",
    "city": "La Reja (Moreno)",
    "country": "Argentina",
    "phone": "+54 11 6009 2244",
    "email": "",
    "website": "https://lareja.fsspx.org/",
    "tags": [
      "Seminario",
      "Misa dominical",
      "Misa entre semana"
    ]
  },
  {
    "lat": -29.78761,
    "lng": -58.05944,
    "name": "Capilla de la Santa Cruz",
    "address": "Rodriguez Peña, 569",
    "postalCode": "3460",
    "city": "Curuzú Cuatiá",
    "country": "Argentina",
    "phone": "+54 379  446 34 61",
    "email": "",
    "website": "https://www.fsspx-sudamerica.org/",
    "tags": [
      "Misa dominical"
    ]
  },
  {
    "lat": -27.47509,
    "lng": -58.82737,
    "name": "Priorato Nuestra Senõra de Itati",
    "address": "Paraguay 1490 (esquina Rivadavia)",
    "postalCode": "3400",
    "city": "Corrientes Capital",
    "country": "Argentina",
    "phone": "+54 379 446 3461",
    "email": "sudamerica@fsspx.email",
    "website": "https://www.fsspx-sudamerica.org/",
    "tags": [
      "Residencia de sacerdotes",
      "Misa dominical"
    ]
  },
  {
    "lat": -29.18399,
    "lng": -58.08009,
    "name": "Iglesia Santa Rita",
    "address": "Calle La Calandria",
    "postalCode": "3470",
    "city": "Mercedes",
    "country": "Argentina",
    "phone": "+54 379  446 34 61",
    "email": "",
    "website": "https://www.fsspx-sudamerica.org/es",
    "tags": [
      "Misa dominical"
    ]
  },
  {
    "lat": -31.75036,
    "lng": -64.40983,
    "name": "Escuela del Inmaculado Corazón de María",
    "address": "Ruta 5, esq. Bosque Alegre",
    "postalCode": "5189",
    "city": "Anisacate",
    "country": "Argentina",
    "phone": "+54 354 742 5174",
    "email": "",
    "website": "https://www.fsspx-sudamerica.org/es",
    "tags": [
      "Misa dominical",
      "Misa entre semana"
    ]
  },
  {
    "lat": -32.92159,
    "lng": -68.86514,
    "name": "Iglesia de Nuestra Señora de la Soledad",
    "address": "General Mariano Balcarce 267",
    "postalCode": "5501",
    "city": "Godoy Cruz",
    "country": "Argentina",
    "phone": "+54 261  435 00 48",
    "email": "",
    "website": "https://www.fsspx-sudamerica.org/es",
    "tags": [
      "Misa dominical",
      "Misa entre semana"
    ]
  },
  {
    "lat": -34.90896,
    "lng": -57.93365,
    "name": "Oratorio San Antonio de Padua",
    "address": "Centenario, 2922",
    "postalCode": "",
    "city": "Gonnet",
    "country": "Argentina",
    "phone": "+54 11  43 83 08 73",
    "email": "",
    "website": "https://www.fsspx-sudamerica.org/",
    "tags": [
      "Misa dominical"
    ]
  },
  {
    "lat": -22.52053,
    "lng": -63.80091,
    "name": "Capilla San Francisco de Asís",
    "address": "Barrio 9 de Julio",
    "postalCode": "4560",
    "city": "Tártagal",
    "country": "Argentina",
    "phone": "+54 387 436 55 81",
    "email": "",
    "website": "https://www.fsspx-sudamerica.org/",
    "tags": [
      "Misa dominical",
      "Misa entre semana"
    ]
  },
  {
    "lat": -24.77972,
    "lng": -65.44943,
    "name": "Priorato del Inmaculado Corazón de María",
    "address": "Avenida Federico Lacrozze 917",
    "postalCode": "4400",
    "city": "Salta",
    "country": "Argentina",
    "phone": "+54 387 436 55 80",
    "email": "",
    "website": "https://www.fsspx-sudamerica.org/",
    "tags": [
      "Residencia de sacerdotes"
    ]
  },
  {
    "lat": -32.96298,
    "lng": -60.6734,
    "name": "Capilla Nuestra Señora del Santo Rosario",
    "address": "Pasaje Independencia, 3277",
    "postalCode": "2000",
    "city": "Rosario",
    "country": "Argentina",
    "phone": "+54 11  43 83 08 73",
    "email": "",
    "website": "https://www.fsspx-sudamerica.org/",
    "tags": [
      "Misa dominical",
      "Misa entre semana"
    ]
  },
  {
    "lat": -34.68986,
    "lng": -58.42467,
    "name": "Capilla Nuestra Señora de Luján",
    "address": "Calle Ucrania, n° 2853",
    "postalCode": "1824",
    "city": "Valentin Alsina, Lanús",
    "country": "Argentina",
    "phone": "+54 11  43 83 08 73",
    "email": "",
    "website": "https://www.fsspx-sudamerica.org/",
    "tags": [
      "Misa dominical"
    ]
  },
  {
    "lat": -32.92243,
    "lng": -68.84058,
    "name": "Priorato San José",
    "address": "General Bartolomé Mitre 268",
    "postalCode": "5501",
    "city": "Godoy Cruz",
    "country": "Argentina",
    "phone": "+54 261 435 00 48",
    "email": "sudamerica@fsspx.email",
    "website": "https://www.fsspx-sudamerica.org/",
    "tags": [
      "Residencia de sacerdotes"
    ]
  },
  {
    "lat": -31.40195,
    "lng": -64.19322,
    "name": "Capilla San Pio V",
    "address": "General Guido 227",
    "postalCode": "5000",
    "city": "Córdoba",
    "country": "Argentina",
    "phone": "+54 351 472 45 54",
    "email": "",
    "website": "https://www.fsspx-sudamerica.org/",
    "tags": [
      "Misa dominical",
      "Misa entre semana"
    ]
  },
  {
    "lat": -34.61414,
    "lng": -58.37933,
    "name": "Priorato San Pío X",
    "address": "Calle Venezuela 1318",
    "postalCode": "1095",
    "city": "Buenos Aires",
    "country": "Argentina",
    "phone": "+54 11 43 83 08 73",
    "email": "",
    "website": "https://www.fsspx-sudamerica.org/",
    "tags": [
      "Residencia de sacerdotes",
      "Misa dominical",
      "Misa entre semana"
    ]
  },
  {
    "lat": -21.11564,
    "lng": 149.2049,
    "name": "Mackay - Our Lady of Mount Carmel Chapel",
    "address": "218 Harbour Road",
    "postalCode": "4740",
    "city": "Mackay",
    "country": "Australia",
    "phone": "+61 7 3802 0468",
    "email": "lourdes@sspx.com.au",
    "website": "https://sspx.au/en",
    "tags": [
      "Sunday Mass"
    ]
  },
  {
    "lat": -34.94321,
    "lng": 138.59709,
    "name": "Adelaide (Wayville) - Saint Michael's Church",
    "address": "19 Rose Terrace",
    "postalCode": "5034",
    "city": "Wayville",
    "country": "Australia",
    "phone": "+61883731960",
    "email": "st.michaels@sspx.au",
    "website": "https://sspx.au/en",
    "tags": [
      "Sunday Mass"
    ]
  },
  {
    "lat": -33.95059,
    "lng": 151.14866,
    "name": "Sydney (Rockdale) - Child Jesus and Saint Joseph's Church",
    "address": "280 West Botany Street",
    "postalCode": "2216",
    "city": "Rockdale",
    "country": "Australia",
    "phone": "+61 2 9567 7088",
    "email": "sydney@sspx.au",
    "website": "https://sspx.au/en",
    "tags": [
      "Sunday Mass",
      "Weekday Mass"
    ]
  },
  {
    "lat": -34.23286,
    "lng": 142.16723,
    "name": "Mildura (Irymple) - Our Lady of Compassion Church",
    "address": "2112-2114 Fifteenth Street",
    "postalCode": "3498",
    "city": "Irymple",
    "country": "Australia",
    "phone": "+61356291045",
    "email": "corpuschristi@sspx.com.au",
    "website": "https://sspx.au/en",
    "tags": [
      "Sunday Mass"
    ]
  },
  {
    "lat": -32.17386,
    "lng": 148.47531,
    "name": "Dubbo (Rawsonville)",
    "address": "Soldier's Memorial Hall",
    "postalCode": "2830",
    "city": "Rawsonville",
    "country": "Australia",
    "phone": "+61295677088",
    "email": "",
    "website": "https://sspx.au/en",
    "tags": [
      "Sunday Mass"
    ]
  },
  {
    "lat": -32.56298,
    "lng": 151.17389,
    "name": "Singleton - Sacred Heart of Jesus and Mary Church",
    "address": "37 Elizabeth Street",
    "postalCode": "2330",
    "city": "Singleton",
    "country": "Australia",
    "phone": "+61 2 9567 7088",
    "email": "webmaster@sspx.com.au",
    "website": "https://sspx.au/en",
    "tags": [
      "Sunday Mass"
    ]
  },
  {
    "lat": -33.95105,
    "lng": 151.14962,
    "name": "Saint Dominic Savio School",
    "address": "19 William Street",
    "postalCode": "2216",
    "city": "Rockdale",
    "country": "Australia",
    "phone": "+61 2 9597 6956",
    "email": "stdominicsavio@isp.net.au",
    "website": "https://sspx.au/en",
    "tags": [
      "Sunday Mass",
      "Weekday Mass"
    ]
  },
  {
    "lat": -37.93364,
    "lng": 145.00845,
    "name": "Melbourne (Hampton) - Our Lady and Saint Andrew's Church",
    "address": "40, Ludstone Street",
    "postalCode": "3188",
    "city": "Hampton",
    "country": "Australia",
    "phone": "+61 3 9598 3848",
    "email": "hampton@sspx.com.au",
    "website": "https://sspx.au/en",
    "tags": [
      "Sunday Mass",
      "Weekday Mass"
    ]
  },
  {
    "lat": -27.72096,
    "lng": 153.08427,
    "name": "Brisbane (Parkridge) - Saint Philomena's School",
    "address": "61 Koplick Road",
    "postalCode": "4125",
    "city": "Park Ridge",
    "country": "Australia",
    "phone": "+61 7 3802 0088",
    "email": "admin@stphilomena.qld.edu.au",
    "website": "https://sspx.au/en",
    "tags": [
      "Priests' Residence",
      "Sunday Mass",
      "Weekday Mass"
    ]
  },
  {
    "lat": -38.08365,
    "lng": 145.62377,
    "name": "Tynong - Saint Thomas Aquinas College",
    "address": "1, Tynong Road",
    "postalCode": "3813",
    "city": "Tynong",
    "country": "Australia",
    "phone": "+61 3 56 29 25 00",
    "email": "office@stac.vic.edu.au",
    "website": "https://sspx.au/en",
    "tags": [
      "Sunday Mass"
    ]
  },
  {
    "lat": -33.03708,
    "lng": 149.41635,
    "name": "Hill End",
    "address": "18 Denison Street",
    "postalCode": "2850",
    "city": "Hill End",
    "country": "Australia",
    "phone": "+61 2 9567 7088",
    "email": "",
    "website": "https://sspx.au/en",
    "tags": [
      "Sunday Mass"
    ]
  },
  {
    "lat": -32.79595,
    "lng": 134.21603,
    "name": "Streaky Bay - Saint Therese's Chapel",
    "address": "8 Wells Street",
    "postalCode": "5680",
    "city": "Streaky Bay",
    "country": "Australia",
    "phone": "+61356291045",
    "email": "st.michaels@sspx.au",
    "website": "https://sspx.au/en",
    "tags": [
      "Sunday Mass"
    ]
  },
  {
    "lat": -36.05734,
    "lng": 146.91353,
    "name": "Albury (Glenroy) - Our Lady of Fatima Church",
    "address": "661-665 Belgravia Avenue",
    "postalCode": "2640",
    "city": "Glenroy",
    "country": "Australia",
    "phone": "+612 4829 5177",
    "email": "albury@sspx.com.au",
    "website": "https://sspx.au/en",
    "tags": [
      "Sunday Mass"
    ]
  },
  {
    "lat": -12.46113,
    "lng": 130.84185,
    "name": "Darwin - Mission of St Peter Mary Chanel",
    "address": "",
    "postalCode": "",
    "city": "Darwin",
    "country": "Australia",
    "phone": "+61437441232",
    "email": "",
    "website": "https://sspx.au/en",
    "tags": [
      "Sunday Mass"
    ]
  },
  {
    "lat": -25.28332,
    "lng": 152.84862,
    "name": "Hervey Bay - Pialba Historical Village Museum Chapel",
    "address": "13 Zepher Street",
    "postalCode": "4655",
    "city": "Scarness",
    "country": "Australia",
    "phone": "+61 7 3802 0468",
    "email": "lourdes@sspx.com.au",
    "website": "https://sspx.au/en",
    "tags": [
      "Sunday Mass"
    ]
  },
  {
    "lat": -34.96134,
    "lng": 149.66653,
    "name": "Goulburn (Lake Bathurst) - Holy Cross Parish & Priory",
    "address": "P.O. Box 417",
    "postalCode": "2580",
    "city": "Goulburn",
    "country": "Australia",
    "phone": "+61 2 4829 5177",
    "email": "c.curtis@fsspx.email",
    "website": "https://sspx.au/en",
    "tags": [
      "Priests' Residence",
      "Sunday Mass",
      "Weekday Mass"
    ]
  },
  {
    "lat": -33.41611,
    "lng": 115.8741,
    "name": "Dardanup",
    "address": "",
    "postalCode": "",
    "city": "Dardanup",
    "country": "Australia",
    "phone": "+61 8 9728 1210",
    "email": "m.delsorte@fsspx.email",
    "website": "https://sspx.au/en",
    "tags": [
      "Sunday Mass"
    ]
  },
  {
    "lat": -27.5606,
    "lng": 152.97804,
    "name": "Brisbane (Oxley) - Our Lady of Lourdes Church",
    "address": "1111 Oxley Road",
    "postalCode": "4075",
    "city": "Oxley (Brisbane)",
    "country": "Australia",
    "phone": "+61732786607",
    "email": "",
    "website": "https://sspx.au/en",
    "tags": [
      "Sunday Mass",
      "Weekday Mass"
    ]
  },
  {
    "lat": -31.94736,
    "lng": 115.80822,
    "name": "Our Lady, Star of the Sea Church",
    "address": "1, Peel Street",
    "postalCode": "6014",
    "city": "Jolimont",
    "country": "Australia",
    "phone": "+61 8 9387 5837",
    "email": "",
    "website": "https://sspx.au/en",
    "tags": [
      "Priests' Residence",
      "Sunday Mass",
      "Weekday Mass"
    ]
  },
  {
    "lat": -26.71082,
    "lng": 153.05364,
    "name": "Sunshine Coast (Buderim) - Infant Jesus of Prague Church",
    "address": "(Sunshine Coast)",
    "postalCode": "4556",
    "city": "Buderim",
    "country": "Australia",
    "phone": "+61 3 9598 3848",
    "email": "lourdes@sspx.com.au",
    "website": "https://sspx.au/en",
    "tags": [
      "Sunday Mass"
    ]
  },
  {
    "lat": -30.51642,
    "lng": 151.66667,
    "name": "Armidale Mission",
    "address": "",
    "postalCode": "",
    "city": "Armidale",
    "country": "Australia",
    "phone": "+61 2 9567 7088",
    "email": "sydney@sspx.com.au",
    "website": "https://sspx.au/en",
    "tags": [
      "Sunday Mass"
    ]
  },
  {
    "lat": -27.77906,
    "lng": 151.94118,
    "name": "Toowoomba (East Greemount) - Christ the King Church",
    "address": "1 Hodgson Street",
    "postalCode": "4359",
    "city": "East Greenmount",
    "country": "Australia",
    "phone": "+61437441232",
    "email": "",
    "website": "https://sspx.au/en",
    "tags": [
      "Sunday Mass"
    ]
  },
  {
    "lat": -19.34149,
    "lng": 146.72683,
    "name": "Townsville (Rasmussen) - Saint Anne's Catholic Church",
    "address": "180-184 Pinnacle Drive",
    "postalCode": "4817",
    "city": "Rasmussen",
    "country": "Australia",
    "phone": "+61437441232",
    "email": "lourdes@sspx.com.au",
    "website": "https://sspx.au/en",
    "tags": [
      "Sunday Mass"
    ]
  },
  {
    "lat": -38.07197,
    "lng": 145.62923,
    "name": "Tynong - Corpus Christi Catholic Church & Priory",
    "address": "15 Granite Lane",
    "postalCode": "3813",
    "city": "Tynong",
    "country": "Australia",
    "phone": "+61 3 5629 1045",
    "email": "",
    "website": "https://sspx.au/en",
    "tags": [
      "Priests' Residence",
      "Sunday Mass",
      "Weekday Mass"
    ]
  },
  {
    "lat": 47.08729,
    "lng": 15.41889,
    "name": "Graz - Kirche St. Thomas von Aquin",
    "address": "Kalvarienbergstr. 77",
    "postalCode": "8020",
    "city": "Graz",
    "country": "Austria",
    "phone": "+43 1 812 12 06",
    "email": "s.frey@fsspx.at",
    "website": "https://fsspx.at/de/kirche-st-thomas-von-aquin-31277",
    "tags": [
      "Messe am Sonntag"
    ]
  },
  {
    "lat": 48.0283,
    "lng": 14.40905,
    "name": "Steyr - Kapelle St. Florian",
    "address": "Leopold-Werndl-Str. 31",
    "postalCode": "4400",
    "city": "Steyr",
    "country": "Austria",
    "phone": "+43 27 16 65 15",
    "email": "m.kopacsi@fsspx.email",
    "website": "https://fsspx.at/de/kapelle-st-florian-31360",
    "tags": [
      "Messe am Sonntag"
    ]
  },
  {
    "lat": 48.52912,
    "lng": 15.48604,
    "name": "Distriktsitz Jaidhof - Priorat St. Petrus Canisius",
    "address": "Jaidhof 1",
    "postalCode": "3542",
    "city": "Gföhl",
    "country": "Austria",
    "phone": "+43 27 16 65 15",
    "email": "kontakt@fsspx.at",
    "website": "https://fsspx.at/de/distriktsitz-jaidhof-31276",
    "tags": [
      "Distrikt Haus",
      "Priesterresidenz",
      "Messe am Sonntag",
      "Messe am Wochentag"
    ]
  },
  {
    "lat": 47.81527,
    "lng": 13.06882,
    "name": "Salzburg - Kapelle St. Pius X.",
    "address": "Schillinghofstraße 4",
    "postalCode": "5023",
    "city": "Salzburg",
    "country": "Austria",
    "phone": "+43 512 283 975",
    "email": "m.buchmaier@fsspx.email",
    "website": "https://fsspx.today/chapel/salzburg/",
    "tags": [
      "Messe am Sonntag"
    ]
  },
  {
    "lat": 48.30852,
    "lng": 14.26328,
    "name": "Lienz - Kapelle Maria Miterlöserin",
    "address": "Johann-Anton-Rohracher-Str. 7",
    "postalCode": "9900",
    "city": "Lienz",
    "country": "Austria",
    "phone": "+43 512 283 975",
    "email": "g.mura@fsspx.email",
    "website": "https://fsspx.at/de/kapelle-maria-miterloeserin-31358",
    "tags": [
      "Messe am Sonntag"
    ]
  },
  {
    "lat": 47.27027,
    "lng": 11.38797,
    "name": "Innsbruck - Priorat Maria Hilf",
    "address": "Höttinger Gasse 14",
    "postalCode": "6020",
    "city": "Innsbruck",
    "country": "Austria",
    "phone": "+43 512 283 975",
    "email": "m.bayer@fsspx.email",
    "website": "https://fsspx.at/de/innsbruck-31280",
    "tags": [
      "Priesterresidenz",
      "Messe am Sonntag",
      "Messe am Wochentag"
    ]
  },
  {
    "lat": 48.29516,
    "lng": 14.29018,
    "name": "Linz - Kapelle St. Margareta Maria Alacoque",
    "address": "Volksgartenstr. 28",
    "postalCode": "4020",
    "city": "Linz",
    "country": "Austria",
    "phone": "+43 27 16 65 15",
    "email": "m.kopacsi@fsspx.email",
    "website": "https://fsspx.at/de/linz-kapelle-st-margareta-maria-alacoque-31278",
    "tags": [
      "Messe am Sonntag"
    ]
  },
  {
    "lat": 48.18363,
    "lng": 16.34074,
    "name": "Wien - Priorat St. Klemens M. Hofbauer",
    "address": "Fockygasse, 13",
    "postalCode": "1120",
    "city": "Wien",
    "country": "Austria",
    "phone": "+43 670 5584144",
    "email": "s.frey@fsspx.email",
    "website": "https://fsspx.at/de/wien-priorat-st-klemens-m-hofbauer-35952",
    "tags": [
      "Priesterresidenz",
      "Messe am Wochentag"
    ]
  },
  {
    "lat": 46.62131,
    "lng": 14.30347,
    "name": "Klagenfurt - Kapelle St. Hemma von Gurk",
    "address": "Villacher Ring 5",
    "postalCode": "9020",
    "city": "Klagenfurt",
    "country": "Austria",
    "phone": "",
    "email": "e.jeindl@fsspx.email",
    "website": "https://fsspx.at/de/kapelle-st-hemma-von-gurk-31295",
    "tags": [
      "Messe am Sonntag"
    ]
  },
  {
    "lat": 47.36468,
    "lng": 16.12298,
    "name": "Pinkafeld - Kapelle St. Martin",
    "address": "Steinamangerstr. 2",
    "postalCode": "7423",
    "city": "Pinkafeld",
    "country": "Austria",
    "phone": "+43 3357 42538",
    "email": "kontakt@fsspx.at",
    "website": "https://fsspx.at/de/kapelle-st-martin-35177",
    "tags": [
      "Messe am Sonntag"
    ]
  },
  {
    "lat": 47.28722,
    "lng": 12.68729,
    "name": "Piesendorf - Kapelle Herz Jesu",
    "address": "Walchen 51",
    "postalCode": "5721",
    "city": "Piesendorf",
    "country": "Austria",
    "phone": "+43 512 283 975",
    "email": "",
    "website": "https://fsspx.today/chapel/piesendorf/",
    "tags": [
      "Messe am Sonntag"
    ]
  },
  {
    "lat": 48.20958,
    "lng": 16.36353,
    "name": "Wien - Minoritenkirche",
    "address": "Minoritenplatz 2A",
    "postalCode": "1010",
    "city": "Wien",
    "country": "Austria",
    "phone": "+43 1 812 12 06",
    "email": "e.stolz@fsspx.email",
    "website": "https://fsspx.at/de/wien-minoritenkirche-35953",
    "tags": [
      "Messe am Sonntag",
      "Messe am Wochentag"
    ]
  },
  {
    "lat": 6.36501,
    "lng": 2.42591,
    "name": "Cotonou",
    "address": "",
    "postalCode": "",
    "city": "Cotonou",
    "country": "Benin",
    "phone": "+229 64 75 76 48",
    "email": "sspxnigeria@gmail.com",
    "website": "",
    "tags": []
  },
  {
    "lat": -21.14719,
    "lng": -41.64561,
    "name": "Priorado São Sebastião",
    "address": "Igreja São Sebastião do Arraial Novo",
    "postalCode": "28368-000",
    "city": "CALHEIROS - Bom Jesus do Itabapoana",
    "country": "Brazil",
    "phone": "+55 22 98151 3549",
    "email": "prioradosaosebastiao@fsspx.com.br",
    "website": "https://www.fsspx.com.br/",
    "tags": [
      "Residência dos padres",
      "Missa dominical"
    ]
  },
  {
    "lat": -19.85728,
    "lng": -43.9597,
    "name": "Belo Horizonte -Missão da FSSPX",
    "address": "Av. Cel. José Dias Bicalho, 17",
    "postalCode": "",
    "city": "Belo Horizonte",
    "country": "Brazil",
    "phone": "+55 11 4301 8939",
    "email": "",
    "website": "https://www.fsspx.com.br/",
    "tags": [
      "Missa dominical"
    ]
  },
  {
    "lat": 50.8429,
    "lng": 4.37092,
    "name": "Église Saint Joseph",
    "address": "Square Frère Orban, 3",
    "postalCode": "1000",
    "city": "Bruxelles",
    "country": "Belgium",
    "phone": "+32 2 550 00 20",
    "email": "",
    "website": "https://fsspx.be/",
    "tags": [
      "Messe dominicale",
      "Messe en semaine"
    ]
  },
  {
    "lat": -23.59367,
    "lng": -46.63324,
    "name": "Priorado Padre Anchieta – Capela São Pio X",
    "address": "Rua Maurício Francisco Klabin, 223",
    "postalCode": "04120-020",
    "city": "São Paulo",
    "country": "Brazil",
    "phone": "+55 11 43 01 89 39",
    "email": "prioradopeanchieta@fsspx.com.br",
    "website": "https://cadastro.fsspx.com.br/lista-priorado-sp/",
    "tags": [
      "Residência dos padres",
      "Missa dominical",
      "Missa durante a semana"
    ]
  },
  {
    "lat": -21.13389,
    "lng": -41.67972,
    "name": "Capela São José",
    "address": "",
    "postalCode": "",
    "city": "",
    "country": "",
    "phone": "+55 22 99233 0266",
    "email": "",
    "website": "https://www.fsspx-sudamerica.org/",
    "tags": [
      "Missa dominical"
    ]
  },
  {
    "lat": -23.59167,
    "lng": -48.05306,
    "name": "Capela São José",
    "address": "",
    "postalCode": "",
    "city": "Itapetininga",
    "country": "Brazil",
    "phone": "+55 11 4301 8939",
    "email": "itapetininga@fsspx.com.br",
    "website": "https://www.fsspx.com.br/",
    "tags": [
      "Missa durante a semana"
    ]
  },
  {
    "lat": 51.04032,
    "lng": 3.71732,
    "name": "Sint Amanduskapel",
    "address": "Kortrijksesteenweg 139",
    "postalCode": "9000",
    "city": "Gent",
    "country": "Belgium",
    "phone": "",
    "email": "",
    "website": "https://fsspx.be/",
    "tags": [
      "Sunday Mass"
    ]
  },
  {
    "lat": -23.39725,
    "lng": -46.28427,
    "name": "Casa Dom Vital - Nossa Senhora das Dores",
    "address": "Avenida Internacional, 223",
    "postalCode": "07438-720",
    "city": "Arujá",
    "country": "Brazil",
    "phone": "+55 11 5199 0401",
    "email": "casadomvital@fsspx.com.br",
    "website": "https://www.fsspx.com.br/",
    "tags": [
      "Casa do distrito",
      "Residência dos padres",
      "Missa dominical",
      "Missa durante a semana"
    ]
  },
  {
    "lat": -29.6888,
    "lng": -53.8058,
    "name": "Priorado do Imaculado Coração de Maria",
    "address": "Rua Tuiuti, 590 - Centro",
    "postalCode": "97015-660",
    "city": "Santa Maria",
    "country": "Brazil",
    "phone": "+55 55 30 28 38 96",
    "email": "",
    "website": "https://www.fsspx.com.br/",
    "tags": [
      "Residência dos padres",
      "Missa dominical",
      "Missa durante a semana"
    ]
  },
  {
    "lat": -22.70556,
    "lng": -46.98583,
    "name": "Capela São Francisco de Assis",
    "address": "",
    "postalCode": "",
    "city": "Jaguariúna",
    "country": "Brazil",
    "phone": "+55 11 4301 8939",
    "email": "",
    "website": "https://www.fsspx.com.br/",
    "tags": [
      "Missa dominical"
    ]
  },
  {
    "lat": 50.83307,
    "lng": 4.3607,
    "name": "Prieuré du Christ Roi",
    "address": "37-39, Rue de la Concorde",
    "postalCode": "1050",
    "city": "Bruxelles",
    "country": "Belgium",
    "phone": "+32 2 550 0020",
    "email": "info.be@fsspx.email",
    "website": "https://fsspx.be/",
    "tags": [
      "Maison de district",
      "Résidence de prêtres",
      "Messe dominicale",
      "Messe en semaine"
    ]
  },
  {
    "lat": -30.01372,
    "lng": -51.1923,
    "name": "Capela São José",
    "address": "",
    "postalCode": "",
    "city": "",
    "country": "",
    "phone": "+55 55 3028 3896",
    "email": "",
    "website": "https://www.fsspx.com.br/",
    "tags": [
      "Missa dominical"
    ]
  },
  {
    "lat": 51.20908,
    "lng": 4.40974,
    "name": "Priorij van het Allerheiligste Sacrament",
    "address": "Hemelstraat 23",
    "postalCode": "2018",
    "city": "Antwerpen",
    "country": "Belgium",
    "phone": "+32 3 229 01 80",
    "email": "hemelstraat.info@fsspx.be",
    "website": "https://fsspx.be/nl",
    "tags": [
      "Priesterresidentie",
      "Sunday Mass",
      "Weekday Mass"
    ]
  },
  {
    "lat": 50.40405,
    "lng": 3.68382,
    "name": "Carmel du Sacré-Cœur",
    "address": "16, Rue des Wagnons",
    "postalCode": "7380",
    "city": "Quiévrain",
    "country": "Belgium",
    "phone": "+32 65 45 79 22",
    "email": "info.be@fsspx.email",
    "website": "https://fsspx.be/",
    "tags": [
      "Messe dominicale",
      "Messe en semaine",
      "Couvent"
    ]
  },
  {
    "lat": -16.18264,
    "lng": -49.02697,
    "name": "Instituto Nossa Senhora do Rosário",
    "address": "Fazenda Bom Jardim",
    "postalCode": "75001-970",
    "city": "Anápolis",
    "country": "Brazil",
    "phone": "+55 62 33 46 11 61",
    "email": "",
    "website": "https://www.fsspx.com.br/",
    "tags": [
      "Missa dominical",
      "Missa durante a semana"
    ]
  },
  {
    "lat": -20.71889,
    "lng": -46.60972,
    "name": "Capela Sagrado Coração de Jesus",
    "address": "Rua Nebraska, 526",
    "postalCode": "37902-108",
    "city": "Passos",
    "country": "Brazil",
    "phone": "+55 11 4301 8939",
    "email": "passos@fsspx.com.br",
    "website": "https://www.fsspx.com.br/",
    "tags": [
      "Missa dominical",
      "Missa durante a semana"
    ]
  },
  {
    "lat": 50.1997,
    "lng": 6.1583,
    "name": "Eglise du Sacré-Coeur",
    "address": "Steffeshausen 5",
    "postalCode": "4790",
    "city": "Burg Reuland",
    "country": "Belgium",
    "phone": "+32 080 46 00 13",
    "email": "",
    "website": "https://fsspx.be/",
    "tags": [
      "Maison de retraite",
      "Messe dominicale",
      "Messe en semaine"
    ]
  },
  {
    "lat": 50.46751,
    "lng": 4.86988,
    "name": "Chapelle Saint Aubain",
    "address": "Rue Delvaux, 8",
    "postalCode": "5000",
    "city": "Namur",
    "country": "Belgium",
    "phone": "+32 2 550 00 20",
    "email": "",
    "website": "https://fsspx.be/",
    "tags": [
      "Messe dominicale",
      "Messe en semaine"
    ]
  },
  {
    "lat": -22.88427,
    "lng": -47.07203,
    "name": "Capela Imaculada Conceição",
    "address": "Rua Capitão Augusto de Sales Pupo, 49",
    "postalCode": "13070-114",
    "city": "Campinas",
    "country": "Brazil",
    "phone": "+55 11 4301 8939",
    "email": "prioradopeanchieta@fsspx.com.br",
    "website": "https://cadastro.fsspx.com.br/lista-indaiatuba/",
    "tags": [
      "Missa dominical",
      "Missa durante a semana"
    ]
  },
  {
    "lat": -20.9206,
    "lng": -41.87756,
    "name": "Capela Nossa Senhora de Fátima e São Pio X",
    "address": "",
    "postalCode": "",
    "city": "",
    "country": "",
    "phone": "+55 22 99233 0266",
    "email": "",
    "website": "https://www.fsspx-sudamerica.org/",
    "tags": [
      "Missa dominical",
      "Missa durante a semana"
    ]
  },
  {
    "lat": -33.411,
    "lng": -70.54665,
    "name": "Priorato Cristo Rey",
    "address": "Calle Talavera de la Reina 430",
    "postalCode": "",
    "city": "Santiago",
    "country": "Chile",
    "phone": "+56 2 2 919 56 15",
    "email": "",
    "website": "https://www.fsspx-sudamerica.org/",
    "tags": [
      "Residencia de sacerdotes",
      "Misa dominical"
    ]
  },
  {
    "lat": 43.63135,
    "lng": -79.48852,
    "name": "Saint Michael's Priory",
    "address": "45 Guthrie Avenue",
    "postalCode": "M8Y 3L2",
    "city": "Toronto",
    "country": "Canada",
    "phone": "+1 416 251 0499",
    "email": "info.toronto@fsspx.ca",
    "website": "https://ontario.sspx.ca/",
    "tags": [
      "Priests' Residence"
    ]
  },
  {
    "lat": 49.56275,
    "lng": 15.94129,
    "name": "Ždár nad Sázavou - Kaple sv. Eliáše, proroka",
    "address": "Nám. Republiky 1485/7",
    "postalCode": "591 01",
    "city": "Ždár nad Sázavou",
    "country": "Czechia",
    "phone": "",
    "email": "",
    "website": "https://www.google.com/maps/d/u/1/viewer?mid=1Zhgit9McVlfs_Mvohql6EEqTo6avf3s&ll=49.797151493396406%2C15.800426038702629&z=7",
    "tags": [
      "Sunday Mass"
    ]
  },
  {
    "lat": 46.8037,
    "lng": -71.18501,
    "name": "Résidences du Précieux Sang",
    "address": "69, rue Saint-Louis",
    "postalCode": "G6V 4G2",
    "city": "Lévis",
    "country": "Canada",
    "phone": "+1 418 837 37 15",
    "email": "",
    "website": "https://levis.sspx.ca/fr",
    "tags": [
      "Foyer pour personnes âgées",
      "Messe dominicale",
      "Messe en semaine"
    ]
  },
  {
    "lat": 49.08965,
    "lng": -122.60156,
    "name": "Christ the King Church & Priory",
    "address": "22630 - 48th Avenue",
    "postalCode": "V2Z 2T6",
    "city": "Langley",
    "country": "Canada",
    "phone": "+1 604 533 3358",
    "email": "",
    "website": "https://vancouver.sspx.ca/",
    "tags": [
      "Priests' Residence",
      "Sunday Mass",
      "Weekday Mass"
    ]
  },
  {
    "lat": 42.62546,
    "lng": 18.1975,
    "name": "Mlini - Kapela sv. Vlaha",
    "address": "Put Bruna Bušića 81",
    "postalCode": "20207",
    "city": "Mlini",
    "country": "Croatia",
    "phone": "",
    "email": "",
    "website": "https://fsspx.hr/svete-mise/",
    "tags": [
      "Sunday Mass"
    ]
  },
  {
    "lat": 48.3809,
    "lng": -89.24768,
    "name": "Mission Thunder Bay",
    "address": "",
    "postalCode": "",
    "city": "Thunder Bay",
    "country": "Canada",
    "phone": "+1 204 589 4524",
    "email": "",
    "website": "https://www.sspx.ca",
    "tags": [
      "Weekday Mass"
    ]
  },
  {
    "lat": 43.38472,
    "lng": -80.62786,
    "name": "Our Lady of Mount Carmel Academy",
    "address": "2483 Bleams Road",
    "postalCode": "N3A 3J2",
    "city": "New Hamburg",
    "country": "Canada",
    "phone": "+1 519 634 4932",
    "email": "",
    "website": "https://olmca.sspx.ca/",
    "tags": [
      "Priests' Residence",
      "Weekday Mass"
    ]
  },
  {
    "lat": 51.04669,
    "lng": -113.95963,
    "name": "Our Lady Help of Christians Educational Institute",
    "address": "712 Fortalice Crescent SE",
    "postalCode": "T2A 2E1",
    "city": "Calgary",
    "country": "Canada",
    "phone": "+1 403 248 36 64",
    "email": "",
    "website": "https://calgary.sspx.ca/en/education-alberta-51031",
    "tags": []
  },
  {
    "lat": 49.73899,
    "lng": -92.83376,
    "name": "Saint Theresa of the Child Jesus Chapel",
    "address": "324 McIntyre Drive",
    "postalCode": "",
    "city": "Dryden",
    "country": "Canada",
    "phone": "+1 807 937 6631",
    "email": "",
    "website": "https://winnipeg.sspx.ca/en",
    "tags": [
      "Sunday Mass"
    ]
  },
  {
    "lat": 49.92768,
    "lng": -97.14408,
    "name": "Our Lady of the Rosary Church",
    "address": "478 McKenzie Street",
    "postalCode": "R2W 5B9",
    "city": "Winnipeg",
    "country": "Canada",
    "phone": "+1 204 589 4524",
    "email": "",
    "website": "https://winnipeg.sspx.ca/en",
    "tags": [
      "Sunday Mass",
      "Weekday Mass"
    ]
  },
  {
    "lat": 46.82632,
    "lng": -71.08907,
    "name": "Prieuré et École Sainte-Famille",
    "address": "10425 boulevard Guillaume-Couture",
    "postalCode": "G6V 9R6",
    "city": "Lévis",
    "country": "Canada",
    "phone": "+1 418 837 3028",
    "email": "",
    "website": "https://levis.sspx.ca/fr",
    "tags": [
      "Résidence de prêtres",
      "Messe dominicale",
      "Messe en semaine"
    ]
  },
  {
    "lat": 50.26444,
    "lng": -119.28429,
    "name": "Our Lady Queen of Peace Church",
    "address": "3016 - 37th Street",
    "postalCode": "V1T 6G5",
    "city": "Vernon",
    "country": "Canada",
    "phone": "+1 604 533 3358",
    "email": "",
    "website": "https://vancouver.sspx.ca/",
    "tags": [
      "Sunday Mass",
      "Weekday Mass"
    ]
  },
  {
    "lat": 48.47582,
    "lng": -81.3305,
    "name": "Our Lady of Good Success Mission",
    "address": "",
    "postalCode": "",
    "city": "Timmins",
    "country": "Canada",
    "phone": "+1 416 251 0499",
    "email": "",
    "website": "https://www.sspx.ca",
    "tags": [
      "Sunday Mass"
    ]
  },
  {
    "lat": 48.92171,
    "lng": 14.43363,
    "name": "Boršov nad Vltavou - Dům Msgr. Marcela Lefebvra",
    "address": "Farní 50",
    "postalCode": "37382",
    "city": "Boršov nad Vltavou",
    "country": "Czechia",
    "phone": "",
    "email": "",
    "website": "https://www.google.com/maps/d/u/1/viewer?mid=1Zhgit9McVlfs_Mvohql6EEqTo6avf3s&ll=49.797151493396406%2C15.800426038702629&z=7",
    "tags": [
      "Sunday Mass"
    ]
  },
  {
    "lat": 49.49808,
    "lng": -117.27791,
    "name": "Mission Nelson",
    "address": "58 View Street",
    "postalCode": "V1L 2V5",
    "city": "Nelson",
    "country": "Canada",
    "phone": "+1 250 352 67 62",
    "email": "",
    "website": "https://vancouver.sspx.ca/",
    "tags": [
      "Sunday Mass"
    ]
  },
  {
    "lat": 43.16354,
    "lng": -81.68203,
    "name": "St. Paul’s Catholic Church",
    "address": "236 Hastings St",
    "postalCode": "N0M 2K0",
    "city": "Parkhill",
    "country": "Canada",
    "phone": "+15196344932",
    "email": "",
    "website": "https://olmca.sspx.ca/",
    "tags": [
      "Sunday Mass"
    ]
  },
  {
    "lat": 49.02631,
    "lng": 17.63872,
    "name": "Uherský Brod - Hřbitovní kaple, starý hřbitov",
    "address": "Svatopluka Čecha 1324",
    "postalCode": "688 01",
    "city": "Uherský Brod",
    "country": "Czechia",
    "phone": "",
    "email": "",
    "website": "https://www.google.com/maps/d/u/1/viewer?mid=1Zhgit9McVlfs_Mvohql6EEqTo6avf3s&ll=49.797151493396406%2C15.800426038702629&z=7",
    "tags": [
      "Sunday Mass"
    ]
  },
  {
    "lat": 48.75975,
    "lng": -91.61817,
    "name": "Mission Atikokan",
    "address": "",
    "postalCode": "",
    "city": "Atikokan",
    "country": "Canada",
    "phone": "+1 807 597 4415",
    "email": "",
    "website": "https://www.sspx.ca",
    "tags": [
      "Weekday Mass"
    ]
  },
  {
    "lat": 49.57276,
    "lng": 18.32314,
    "name": "Pstruží - Dům sv. Prokopa",
    "address": "Pstruží č. p. 107",
    "postalCode": "739 11",
    "city": "Pstruží",
    "country": "Czechia",
    "phone": "",
    "email": "",
    "website": "https://www.google.com/maps/d/u/1/viewer?mid=1Zhgit9McVlfs_Mvohql6EEqTo6avf3s&ll=49.797151493396406%2C15.800426038702629&z=7",
    "tags": [
      "Sunday Mass"
    ]
  },
  {
    "lat": 46.59137,
    "lng": -66.17837,
    "name": "Maritimes Missions - NB",
    "address": "",
    "postalCode": "",
    "city": "",
    "country": "Canada",
    "phone": "",
    "email": "maritimes@fsspx.ca",
    "website": "",
    "tags": [
      "Sunday Mass"
    ]
  },
  {
    "lat": 49.20513,
    "lng": -124.01977,
    "name": "Our Lady of Good Counsel Church",
    "address": "4334 Jingle Pot Road",
    "postalCode": "V9T 5P4",
    "city": "Nanaimo",
    "country": "Canada",
    "phone": "+1 604 533 3358",
    "email": "",
    "website": "https://vancouver.sspx.ca/",
    "tags": [
      "Sunday Mass"
    ]
  },
  {
    "lat": 23.13413,
    "lng": -82.35842,
    "name": "Oratorio San José",
    "address": "",
    "postalCode": "",
    "city": "La Habana",
    "country": "Cuba",
    "phone": "+52 55 57 81 21 31",
    "email": "",
    "website": "https://fsspx.mx/",
    "tags": [
      "Misa dominical"
    ]
  },
  {
    "lat": -29.93139,
    "lng": -71.2594,
    "name": "Capilla \"Fundo Santa Elena\"",
    "address": "Pan de Azúcar",
    "postalCode": "",
    "city": "La Serena",
    "country": "Chile",
    "phone": "+56 2 29195615",
    "email": "",
    "website": "https://www.fsspx-sudamerica.org/",
    "tags": [
      "Misa dominical",
      "Misa entre semana"
    ]
  },
  {
    "lat": 46.20357,
    "lng": -70.73744,
    "name": "Chapelle Marie Reine",
    "address": "301, 41ème rue",
    "postalCode": "G5X 2K9",
    "city": "Beauceville",
    "country": "Canada",
    "phone": "+1 418 837 3028",
    "email": "",
    "website": "https://levis.sspx.ca/fr",
    "tags": [
      "Messe dominicale"
    ]
  },
  {
    "lat": 4.62475,
    "lng": -74.07286,
    "name": "Capilla Sagrados Corazones de Jesús y de Maria",
    "address": "Carrera 18, n° 35-33",
    "postalCode": "",
    "city": "Bogotá",
    "country": "Colombia",
    "phone": "+57 1 285 87 47",
    "email": "",
    "website": "https://www.fsspx-sudamerica.org/",
    "tags": [
      "Misa dominical",
      "Misa entre semana"
    ]
  },
  {
    "lat": 4.62522,
    "lng": -74.07187,
    "name": "Priorato Monsr. Ezequiel Moreno Díaz",
    "address": "Carrera 17, nº 36-10",
    "postalCode": "",
    "city": "Bogotá",
    "country": "Colombia",
    "phone": "+57 1 245 48 04",
    "email": "",
    "website": "https://www.fsspx-sudamerica.org/",
    "tags": [
      "Residencia de sacerdotes",
      "Misa entre semana"
    ]
  },
  {
    "lat": 51.04964,
    "lng": -114.15467,
    "name": "St. Dennis Church",
    "address": "4718 Worcester Drive SW",
    "postalCode": "T3C 3L6",
    "city": "Calgary",
    "country": "Canada",
    "phone": "+1 403 233 0031",
    "email": "",
    "website": "https://calgary.sspx.ca/en",
    "tags": [
      "Priests' Residence",
      "Sunday Mass",
      "Weekday Mass"
    ]
  },
  {
    "lat": 44.93922,
    "lng": -75.36066,
    "name": "St. Thomas More Catholic Church",
    "address": "11052 Gilmour Road",
    "postalCode": "K0E 1C0",
    "city": "Brinston",
    "country": "Canada",
    "phone": "+1 450 390 1323",
    "email": "",
    "website": "https://sspx.ca/en/st-joseph-house-45081",
    "tags": [
      "Sunday Mass"
    ]
  },
  {
    "lat": 45.4085,
    "lng": -73.00186,
    "name": "Centre Saint-Joseph",
    "address": "1395 rue Notre-Dame",
    "postalCode": "J0L 1T0",
    "city": "Saint-Césaire",
    "country": "Canada",
    "phone": "+1 450 390 1323",
    "email": "",
    "website": "https://sspx.ca/fr/maison-saint-joseph-45081",
    "tags": [
      "Maison de district",
      "Résidence de prêtres",
      "Maison de retraite",
      "Messe dominicale",
      "Messe en semaine"
    ]
  },
  {
    "lat": 50.02947,
    "lng": 15.76684,
    "name": "Pardubice",
    "address": "Nám. Republiky 2686",
    "postalCode": "530 02",
    "city": "Pardubice",
    "country": "Czechia",
    "phone": "",
    "email": "",
    "website": "https://www.google.com/maps/d/u/1/viewer?mid=1Zhgit9McVlfs_Mvohql6EEqTo6avf3s&ll=49.797151493396406%2C15.800426038702629&z=7",
    "tags": [
      "Sunday Mass"
    ]
  },
  {
    "lat": 45.562,
    "lng": 18.67573,
    "name": "Osijek - Kapela Presvetoga Srca Isusova",
    "address": "Ulica Josipa Jurja Strossmayera 1a",
    "postalCode": "31000",
    "city": "Osijek",
    "country": "Croatia",
    "phone": "",
    "email": "",
    "website": "https://fsspx.hr/svete-mise/",
    "tags": [
      "Sunday Mass"
    ]
  },
  {
    "lat": -33.02623,
    "lng": -71.56448,
    "name": "Capilla San José de los Angeles",
    "address": "Pasaje Lopez, 126",
    "postalCode": "",
    "city": "Viña del Mar",
    "country": "Chile",
    "phone": "+56 32 262 12 10",
    "email": "",
    "website": "https://www.fsspx-sudamerica.org/",
    "tags": [
      "Misa dominical",
      "Misa entre semana"
    ]
  },
  {
    "lat": 6.24578,
    "lng": -75.57457,
    "name": "Oratorio Ntra. Sra. del Perpetuo Socorro",
    "address": "Carrera 46 #66-72 Simon Bolivar",
    "postalCode": "",
    "city": "Itagüi Medellín",
    "country": "Colombia",
    "phone": "+57 1  245 48 04",
    "email": "",
    "website": "https://www.fsspx-sudamerica.org/",
    "tags": [
      "Misa dominical",
      "Misa entre semana"
    ]
  },
  {
    "lat": 7.13043,
    "lng": -73.12009,
    "name": "Priorato Santa Teresita del Niño Jesús",
    "address": "Calle 19 # 26-50",
    "postalCode": "",
    "city": "Bucaramanga",
    "country": "Colombia",
    "phone": "+57 7 645 61 69",
    "email": "",
    "website": "https://www.fsspx-sudamerica.org/",
    "tags": [
      "Misa dominical"
    ]
  },
  {
    "lat": 50.05365,
    "lng": 14.4526,
    "name": "Praha - Domov Sue Ryder",
    "address": "Michelská 1/7",
    "postalCode": "140 00",
    "city": "Praha",
    "country": "Czechia",
    "phone": "",
    "email": "",
    "website": "https://www.google.com/maps/d/u/1/viewer?mid=1Zhgit9McVlfs_Mvohql6EEqTo6avf3s&ll=49.797151493396406%2C15.800426038702629&z=7",
    "tags": [
      "Sunday Mass"
    ]
  },
  {
    "lat": 56.23418,
    "lng": -117.28938,
    "name": "Mission Peace River",
    "address": "Weberville Community Club",
    "postalCode": "T8S 1V8",
    "city": "Peace River",
    "country": "Canada",
    "phone": "+1 403 233 0031",
    "email": "",
    "website": "https://calgary.sspx.ca/en",
    "tags": [
      "Sunday Mass"
    ]
  },
  {
    "lat": 45.34462,
    "lng": 14.3804,
    "name": "Rijeka - Kapela Bezgrješnoga Srca Marijina",
    "address": "Avelina Turka 1",
    "postalCode": "51000",
    "city": "Rijeka",
    "country": "Croatia",
    "phone": "+385 1 2102 703",
    "email": "",
    "website": "https://fsspx.hr/svete-mise/",
    "tags": [
      "Sunday Mass"
    ]
  },
  {
    "lat": 43.63074,
    "lng": -79.48712,
    "name": "Church of the Transfiguration",
    "address": "11, Aldgate Avenue",
    "postalCode": "M8Y 3L4",
    "city": "Etobicoke, Toronto",
    "country": "Canada",
    "phone": "+1 416 251 0499",
    "email": "",
    "website": "https://ontario.sspx.ca",
    "tags": [
      "Sunday Mass",
      "Weekday Mass"
    ]
  },
  {
    "lat": 43.3784,
    "lng": -80.71234,
    "name": "Saint Peter's Curch",
    "address": "144 Huron Street",
    "postalCode": "N3A 1J4",
    "city": "New Hamburg",
    "country": "Canada",
    "phone": "+1 519 634 4932",
    "email": "",
    "website": "https://olmca.sspx.ca/",
    "tags": [
      "Sunday Mass"
    ]
  },
  {
    "lat": 7.12944,
    "lng": -73.12085,
    "name": "Capilla San José",
    "address": "Calle 20, # 25-35",
    "postalCode": "",
    "city": "Bucaramanga",
    "country": "Colombia",
    "phone": "+57 1  245 48 04",
    "email": "",
    "website": "https://www.fsspx-sudamerica.org/",
    "tags": [
      "Misa dominical",
      "Misa entre semana"
    ]
  },
  {
    "lat": 45.39171,
    "lng": -71.90243,
    "name": "Église Sainte Jeanne d’Arc",
    "address": "1000 rue Galt Ouest",
    "postalCode": "J1H 1Z8",
    "city": "Sherbrooke",
    "country": "Canada",
    "phone": "+1 418 837 3028",
    "email": "",
    "website": "https://levis.sspx.ca/fr",
    "tags": [
      "Messe dominicale",
      "Messe en semaine"
    ]
  },
  {
    "lat": 46.5221,
    "lng": -80.95304,
    "name": "Saint Philomena Mission",
    "address": "Travelodge Hotel",
    "postalCode": "P3E 3B6",
    "city": "Sudbury",
    "country": "Canada",
    "phone": "+1 416 251 0499",
    "email": "",
    "website": "https://ontario.sspx.ca/",
    "tags": [
      "Sunday Mass"
    ]
  },
  {
    "lat": 43.16959,
    "lng": -79.25152,
    "name": "Holy Face of Jesus Church",
    "address": "181 Lake Street",
    "postalCode": "L2R 5Y8",
    "city": "St. Catharines",
    "country": "Canada",
    "phone": "+1 905 704 00 38",
    "email": "",
    "website": "https://ontario.sspx.ca/",
    "tags": [
      "Sunday Mass"
    ]
  },
  {
    "lat": 50.72302,
    "lng": 15.17265,
    "name": "Jablonec nad Nisou",
    "address": "Jiráskova 7",
    "postalCode": "466 01",
    "city": "Jablonec nad Nisou",
    "country": "Czechia",
    "phone": "",
    "email": "",
    "website": "https://www.google.com/maps/d/u/1/viewer?mid=1Zhgit9McVlfs_Mvohql6EEqTo6avf3s&ll=49.797151493396406%2C15.800426038702629&z=7",
    "tags": [
      "Sunday Mass"
    ]
  },
  {
    "lat": 52.13241,
    "lng": -106.66095,
    "name": "Mission Saskatoon",
    "address": "Acadia McKagues Funeral Centre",
    "postalCode": "S7H 5N4",
    "city": "Saskatoon",
    "country": "Canada",
    "phone": "+1 306 373 7916",
    "email": "",
    "website": "https://sspx.ca/en/our-lady-rosary-church-st-raphaels-priory-30147",
    "tags": [
      "Sunday Mass"
    ]
  },
  {
    "lat": -38.72338,
    "lng": -72.61644,
    "name": "Familia Villagra, Sr. Marcelo y Sra. Carolina",
    "address": "",
    "postalCode": "",
    "city": "Temuco",
    "country": "Chile",
    "phone": "+56 45 2642314",
    "email": "",
    "website": "https://www.fsspx-sudamerica.org/",
    "tags": [
      "Misa dominical",
      "Misa entre semana"
    ]
  },
  {
    "lat": 49.17612,
    "lng": 16.63961,
    "name": "Brno - Kaple Královny posvátného růžence",
    "address": "Faměrovo náměsti 11/26",
    "postalCode": "61800",
    "city": "Brno",
    "country": "Czechia",
    "phone": "+420 548 210 160",
    "email": "",
    "website": "https://www.google.com/maps/d/u/1/viewer?mid=1Zhgit9McVlfs_Mvohql6EEqTo6avf3s&ll=49.797151493396406%2C15.800426038702629&z=7",
    "tags": [
      "Priests' Residence",
      "Sunday Mass"
    ]
  },
  {
    "lat": 52.37575,
    "lng": -114.92079,
    "name": "Our Lady of Sorrows Church",
    "address": "4715 47 Ave",
    "postalCode": "T4T 1C8",
    "city": "Rocky Mountain House",
    "country": "Canada",
    "phone": "+1 403 233 0031",
    "email": "",
    "website": "https://calgary.sspx.ca/en/rocky-mountain-house-50423",
    "tags": [
      "Sunday Mass",
      "Weekday Mass"
    ]
  },
  {
    "lat": 4.05165,
    "lng": 9.68578,
    "name": "Douala",
    "address": "",
    "postalCode": "",
    "city": "Douala",
    "country": "Cameroon",
    "phone": "",
    "email": "mspx.ga@fsspx.net",
    "website": "",
    "tags": []
  },
  {
    "lat": 45.00317,
    "lng": -63.60672,
    "name": "Maritimes Missions - NS",
    "address": "",
    "postalCode": "",
    "city": "",
    "country": "Canada",
    "phone": "",
    "email": "maritimes@fsspx.ca",
    "website": "",
    "tags": [
      "Sunday Mass"
    ]
  },
  {
    "lat": 50.07711,
    "lng": -110.76293,
    "name": "Saint Anne Mission",
    "address": "",
    "postalCode": "",
    "city": "Redcliff",
    "country": "Canada",
    "phone": "+1 403 233 0031",
    "email": "stannemission.info@gmail.com",
    "website": "https://calgary.sspx.ca/en",
    "tags": [
      "Sunday Mass"
    ]
  },
  {
    "lat": 45.85094,
    "lng": 16.03502,
    "name": "Zagreb - Kapela sv. Josipa",
    "address": "Novačka ulica 317",
    "postalCode": "10040",
    "city": "Zagreb",
    "country": "Croatia",
    "phone": "+385 1 2102 703",
    "email": "",
    "website": "https://fsspx.hr/svete-mise/",
    "tags": [
      "Sunday Mass"
    ]
  },
  {
    "lat": 3.86939,
    "lng": 11.5212,
    "name": "Yaoundé",
    "address": "",
    "postalCode": "",
    "city": "Yaoundé",
    "country": "Cameroon",
    "phone": "",
    "email": "mspx.ga@fsspx.net",
    "website": "",
    "tags": []
  },
  {
    "lat": 43.52217,
    "lng": 16.43336,
    "name": "Split - Kapela sv. Jeronima",
    "address": "Zrinsko-frankopanska 58",
    "postalCode": "21000",
    "city": "Split",
    "country": "Croatia",
    "phone": "+385 1 2102 703",
    "email": "",
    "website": "https://fsspx.hr/svete-mise/",
    "tags": [
      "Sunday Mass"
    ]
  },
  {
    "lat": 49.92784,
    "lng": -97.144,
    "name": "Prieuré Saint Raphaël",
    "address": "480 McKenzie Street",
    "postalCode": "R2W 5B9",
    "city": "Winnipeg",
    "country": "Canada",
    "phone": "+1 204 589 4524",
    "email": "",
    "website": "https://winnipeg.sspx.ca/en",
    "tags": [
      "Priests' Residence"
    ]
  },
  {
    "lat": 44.60252,
    "lng": -79.40052,
    "name": "Holy Canadian Martyrs Church",
    "address": "9767 Hwy 12 W",
    "postalCode": "L0K 2G0",
    "city": "Warminster",
    "country": "Canada",
    "phone": "+1 705 209 4196",
    "email": "",
    "website": "https://ontario.sspx.ca/",
    "tags": [
      "Sunday Mass"
    ]
  },
  {
    "lat": 50.32677,
    "lng": -101.52026,
    "name": "Our Lady of Fatima Chapel",
    "address": "402 Main St.",
    "postalCode": "S0A 4L0",
    "city": "Welwyn",
    "country": "Canada",
    "phone": "+1 306 435 6197",
    "email": "",
    "website": "https://winnipeg.sspx.ca/en",
    "tags": [
      "Sunday Mass"
    ]
  },
  {
    "lat": 50.45481,
    "lng": -104.62582,
    "name": "Mission Régina",
    "address": "Seven Oaks Hotel",
    "postalCode": "S4R 2P6",
    "city": "Regina",
    "country": "Canada",
    "phone": "+1 306 485 0085",
    "email": "",
    "website": "https://sspx.ca/en/our-lady-rosary-church-st-raphaels-priory-30147",
    "tags": [
      "Sunday Mass"
    ]
  },
  {
    "lat": 48.49477,
    "lng": 9.17086,
    "name": "Reutlingen - Kirche Hl. Kreuz",
    "address": "Im Staudfuss 9",
    "postalCode": "72770",
    "city": "Reutlingen",
    "country": "Germany",
    "phone": "+49 711 89 69 29 29",
    "email": "",
    "website": "",
    "tags": [
      "Messe am Sonntag"
    ]
  },
  {
    "lat": 49.23523,
    "lng": 9.21397,
    "name": "Bad Friedrichshall - Kapelle Sieben Schmerzen Mariens",
    "address": "Ulmenweg 4",
    "postalCode": "74177",
    "city": "Bad Friedrichshall",
    "country": "Germany",
    "phone": "+49 711 89 69 29 69",
    "email": "",
    "website": "",
    "tags": [
      "Messe am Sonntag"
    ]
  },
  {
    "lat": 52.80277,
    "lng": 8.25772,
    "name": "Hagstedt - Kapelle zu den Herzen Jesu u. Mariä",
    "address": "Hagstedt 142",
    "postalCode": "49429",
    "city": "Hagstedt (Visbeck)",
    "country": "Germany",
    "phone": "+49 201 66 49 22",
    "email": "",
    "website": "",
    "tags": [
      "Messe am Sonntag"
    ]
  },
  {
    "lat": 49.36162,
    "lng": 8.13777,
    "name": "Neustadt - Kapelle Heilige Familie",
    "address": "Mandelring 36",
    "postalCode": "67433",
    "city": "Neustadt/Weinstraße",
    "country": "Germany",
    "phone": "+49 681 85 45 88",
    "email": "",
    "website": "",
    "tags": [
      "Messe am Sonntag"
    ]
  },
  {
    "lat": 47.94183,
    "lng": 12.59776,
    "name": "Traunwalchen - Philomenazentrum",
    "address": "Robert-Bosch-Str. 58",
    "postalCode": "83374",
    "city": "Traunwalchen",
    "country": "Germany",
    "phone": "+49 89 71 27 07",
    "email": "",
    "website": "",
    "tags": [
      "Messe am Sonntag"
    ]
  },
  {
    "lat": 48.24057,
    "lng": 7.71289,
    "name": "Rheinhausen - Priorat St. Michael",
    "address": "Kronenstraße 2",
    "postalCode": "79365",
    "city": "Rheinhausen",
    "country": "Germany",
    "phone": "+49 7643 69 80",
    "email": "priorat-rheinhausen@fsspx.de",
    "website": "",
    "tags": [
      "Priesterresidenz",
      "Messe am Sonntag",
      "Messe am Wochentag"
    ]
  },
  {
    "lat": 48.28832,
    "lng": 10.89042,
    "name": "Augsburg - Kapelle Mutter vom Grossen Sieg",
    "address": "Keltenstraße 9",
    "postalCode": "86343",
    "city": "Königsbrunn/Augsburg",
    "country": "Germany",
    "phone": "+49 8231 34 14 6",
    "email": "",
    "website": "",
    "tags": [
      "Messe am Sonntag"
    ]
  },
  {
    "lat": 49.78997,
    "lng": 9.92823,
    "name": "Würzburg - Oratorium der 14 Hl. Nothelfer",
    "address": "Semmelstrasse 12",
    "postalCode": "97070",
    "city": "Würzburg",
    "country": "Germany",
    "phone": "+49 6022 20 89 83 4",
    "email": "",
    "website": "",
    "tags": [
      "Messe am Sonntag"
    ]
  },
  {
    "lat": 48.46637,
    "lng": 7.95481,
    "name": "Offenburg - Kapelle St. Konrad",
    "address": "Werderstraße 2",
    "postalCode": "77654",
    "city": "Offenburg",
    "country": "Germany",
    "phone": "+49 7643 69 80",
    "email": "",
    "website": "",
    "tags": [
      "Messe am Sonntag"
    ]
  },
  {
    "lat": 18.50302,
    "lng": -69.91892,
    "name": "Capilla de Distrito Nacional",
    "address": "Calle Ramón Cáceres y calle C",
    "postalCode": "",
    "city": "Distrito Nacional",
    "country": "Dominican Republic",
    "phone": "+1 829 438 78 76",
    "email": "",
    "website": "https://www.fsspx-sudamerica.org/",
    "tags": [
      "Misa dominical"
    ]
  },
  {
    "lat": 48.22577,
    "lng": 10.02399,
    "name": "Seniorenheim St. Joseph",
    "address": "Maienfeld 5",
    "postalCode": "88477",
    "city": "Weihungszell",
    "country": "Germany",
    "phone": "+49 7347 60 10",
    "email": "",
    "website": "https://seniorenheim-weihungszell.de",
    "tags": [
      "Seniorenheim",
      "Messe am Sonntag",
      "Messe am Wochentag"
    ]
  },
  {
    "lat": 18.81157,
    "lng": -70.11285,
    "name": "Priorato del Sagrado Corazón",
    "address": "La Gina de Yamasá, Monte Plata",
    "postalCode": "",
    "city": "Santo Domingo",
    "country": "Dominican Republic",
    "phone": "+1 829 438 7876",
    "email": "sudamerica@fsspx.email",
    "website": "https://www.fsspx-sudamerica.org/",
    "tags": [
      "Residencia de sacerdotes",
      "Misa dominical",
      "Misa entre semana"
    ]
  },
  {
    "lat": 47.77174,
    "lng": 9.1577,
    "name": "Überlingen  - Rosenkranzkönigin",
    "address": "Litscherweg 2",
    "postalCode": "88662",
    "city": "Überlingen / Bodensee",
    "country": "Germany",
    "phone": "+49 7371 93 640",
    "email": "",
    "website": "",
    "tags": [
      "Messe am Sonntag"
    ]
  },
  {
    "lat": 47.91157,
    "lng": 10.62893,
    "name": "Kaufbeuren - Kapelle Heilige 14 Nothelfer",
    "address": "Brettbuschgasse 4",
    "postalCode": "87600",
    "city": "Kaufbeuren - Neugablonz",
    "country": "Germany",
    "phone": "+49 89 71 27 07",
    "email": "",
    "website": "",
    "tags": [
      "Messe am Sonntag"
    ]
  },
  {
    "lat": 48.00992,
    "lng": 7.81116,
    "name": "Freiburg - Kapelle St. Antonius von Padua",
    "address": "Wiecherstraße 2b",
    "postalCode": "79114",
    "city": "Freiburg",
    "country": "Germany",
    "phone": "+49 7643 69 80",
    "email": "",
    "website": "",
    "tags": [
      "Messe am Sonntag"
    ]
  },
  {
    "lat": 48.15385,
    "lng": 9.52601,
    "name": "Göffingen - Priorat Heilig Geist",
    "address": "Biberacher Str. 2",
    "postalCode": "88527",
    "city": "Göffingen",
    "country": "Germany",
    "phone": "+49 7371 93 640",
    "email": "",
    "website": "",
    "tags": [
      "Priesterresidenz",
      "Messe am Sonntag",
      "Messe am Wochentag"
    ]
  },
  {
    "lat": 48.80196,
    "lng": 9.79536,
    "name": "Schwäbisch-Gmünd - Kapelle Mutter vom Guten Rat",
    "address": "Fischergasse 12",
    "postalCode": "73525",
    "city": "Schwäbisch Gmünd",
    "country": "Germany",
    "phone": "+49 711 89 69 29 29",
    "email": "",
    "website": "",
    "tags": [
      "Messe am Sonntag"
    ]
  },
  {
    "lat": 18.29352,
    "lng": -70.58738,
    "name": "Capilla San José",
    "address": "",
    "postalCode": "",
    "city": "Palmar de Ocoa, Azua",
    "country": "Dominican Republic",
    "phone": "+1 829 438 78 76",
    "email": "",
    "website": "https://www.fsspx-sudamerica.org/",
    "tags": [
      "Misa dominical",
      "Misa entre semana"
    ]
  },
  {
    "lat": 48.23091,
    "lng": 8.33821,
    "name": "Lauterbach - Exerzitienhaus Porta Caeli",
    "address": "Tannenäckerle 1",
    "postalCode": "78730",
    "city": "Lauterbach",
    "country": "Germany",
    "phone": "+49 7422 245 450",
    "email": "",
    "website": "",
    "tags": [
      "Exerzitienhaus",
      "Messe am Sonntag"
    ]
  },
  {
    "lat": 48.22577,
    "lng": 10.02399,
    "name": "Priorat Saint Christophorus",
    "address": "Maienfeld 5",
    "postalCode": "88477",
    "city": "Weihungszell",
    "country": "Germany",
    "phone": "+49 7347 601 40 00",
    "email": "priorat-weihungszell@fsspx.de",
    "website": "",
    "tags": [
      "Priesterresidenz",
      "Messe am Sonntag",
      "Messe am Wochentag"
    ]
  },
  {
    "lat": 51.48407,
    "lng": 6.97534,
    "name": "Essen - Priorat St. Bonifatius",
    "address": "Bottroper Straße 295",
    "postalCode": "45356",
    "city": "Essen-Bergeborbeck",
    "country": "Germany",
    "phone": "+49 201 66 49 22",
    "email": "",
    "website": "",
    "tags": [
      "Priesterresidenz",
      "Messe am Sonntag",
      "Messe am Wochentag"
    ]
  },
  {
    "lat": 50.94273,
    "lng": 7.00901,
    "name": "Köln - Kapelle Hl. Drei Könige",
    "address": "Steinmetzstr. 34",
    "postalCode": "51103",
    "city": "Köln",
    "country": "Germany",
    "phone": "+49 228 67 91 51",
    "email": "",
    "website": "",
    "tags": [
      "Messe am Sonntag"
    ]
  },
  {
    "lat": 18.79728,
    "lng": -69.97274,
    "name": "Capilla Inmaculado Corazón de María",
    "address": "Carretera S/N",
    "postalCode": "",
    "city": "Peralvillo",
    "country": "Dominican Republic",
    "phone": "+1 829 438 78 76",
    "email": "",
    "website": "https://www.fsspx-sudamerica.org/",
    "tags": [
      "Misa dominical"
    ]
  },
  {
    "lat": 48.22841,
    "lng": 12.67101,
    "name": "Altötting - Kapelle Maria Hilf",
    "address": "Dr. Hiemer Straße 3",
    "postalCode": "84503",
    "city": "Altötting",
    "country": "Germany",
    "phone": "+49 89 71 27 07",
    "email": "",
    "website": "",
    "tags": [
      "Messe am Sonntag"
    ]
  },
  {
    "lat": 48.23906,
    "lng": 8.41631,
    "name": "Schramberg - Kirche Mariä Verkündigung",
    "address": "Lienberg 61",
    "postalCode": "78713",
    "city": "Schramberg-Sulgen",
    "country": "Germany",
    "phone": "+49 742 22 46 46 91",
    "email": "",
    "website": "",
    "tags": [
      "Messe am Sonntag"
    ]
  },
  {
    "lat": 47.84178,
    "lng": 12.04237,
    "name": "Kolbermoor - Kapelle Hl. Bruder Konrad",
    "address": "Th.-Fontane-Str. 7",
    "postalCode": "83059",
    "city": "Kolbermoor",
    "country": "Germany",
    "phone": "+49 89 71 27 07",
    "email": "",
    "website": "",
    "tags": [
      "Messe am Sonntag"
    ]
  },
  {
    "lat": 52.46825,
    "lng": 13.30826,
    "name": "Berlin - Priorat St. Petrus",
    "address": "Dillenburger Straße 4",
    "postalCode": "14199",
    "city": "Berlin",
    "country": "Germany",
    "phone": "+49 30 89 73 23 36",
    "email": "",
    "website": "",
    "tags": [
      "Priesterresidenz",
      "Messe am Sonntag",
      "Messe am Wochentag"
    ]
  },
  {
    "lat": 48.95211,
    "lng": 8.38342,
    "name": "Ettlingen - Kapelle Herz Jesu",
    "address": "Pappelweg 75-77",
    "postalCode": "76275",
    "city": "Ettlingen",
    "country": "Germany",
    "phone": "+49 7643 69 80",
    "email": "",
    "website": "",
    "tags": [
      "Messe am Sonntag"
    ]
  },
  {
    "lat": 50.35012,
    "lng": 7.5584,
    "name": "Koblenz - Kapelle Mariä Heimsuchung",
    "address": "Bahnhofsweg 6",
    "postalCode": "56073",
    "city": "Koblenz-Moselweiss",
    "country": "Germany",
    "phone": "+49 261 40 82 46",
    "email": "",
    "website": "",
    "tags": [
      "Messe am Sonntag"
    ]
  },
  {
    "lat": 48.83684,
    "lng": 12.21177,
    "name": "Priesterseminar Herz Jesu",
    "address": "Zaitzkofen 15",
    "postalCode": "84069",
    "city": "Schierling",
    "country": "Germany",
    "phone": "+49 9451 9431 90",
    "email": "",
    "website": "https://zaitzkofen.fsspx.org/de",
    "tags": [
      "Priesterseminar",
      "Messe am Sonntag"
    ]
  },
  {
    "lat": 50.84199,
    "lng": 7.43579,
    "name": "Schönenberg - Kirche Maria, Hilfe der Christen",
    "address": "St. Vinzenzstrasse 2",
    "postalCode": "53809",
    "city": "Ruppichteroth-Schönenberg",
    "country": "Germany",
    "phone": "+49 2295 90 86 00",
    "email": "",
    "website": "http://www.theresiengymnasium.de",
    "tags": [
      "Messe am Sonntag",
      "Messe am Wochentag"
    ]
  },
  {
    "lat": 48.81147,
    "lng": 9.16707,
    "name": "Stuttgart - Priorat St. Athanasius",
    "address": "Stuttgarter-Straße 24",
    "postalCode": "70469",
    "city": "Stuttgart",
    "country": "Germany",
    "phone": "+49 711 89 69 29 29",
    "email": "",
    "website": "",
    "tags": [
      "Distrikt Haus",
      "Priesterresidenz",
      "Messe am Sonntag",
      "Messe am Wochentag"
    ]
  },
  {
    "lat": 50.98709,
    "lng": 11.22122,
    "name": "Hopfgarten - Kapelle Hl. Elisabeth",
    "address": "Friedegasse 9",
    "postalCode": "99428",
    "city": "Hopfgarten",
    "country": "Germany",
    "phone": "+49 30 89 73 23 36",
    "email": "",
    "website": "",
    "tags": [
      "Messe am Sonntag"
    ]
  },
  {
    "lat": 49.77691,
    "lng": 6.69318,
    "name": "Trier - Kapelle St. Matthias",
    "address": "Ruwerer Str. 25 a",
    "postalCode": "54292",
    "city": "Trier",
    "country": "Germany",
    "phone": "+49 681 85 45 88",
    "email": "",
    "website": "",
    "tags": [
      "Messe am Sonntag"
    ]
  },
  {
    "lat": 48.1127,
    "lng": 11.52078,
    "name": "München - Priorat St. Pius X.",
    "address": "Johann-Clanze-Straße 100",
    "postalCode": "81369",
    "city": "München",
    "country": "Germany",
    "phone": "+49 89 71 27 07",
    "email": "",
    "website": "",
    "tags": [
      "Priesterresidenz",
      "Messe am Sonntag",
      "Messe am Wochentag"
    ]
  },
  {
    "lat": 48.57101,
    "lng": 13.48102,
    "name": "Passau - Rosenkranz-Kapelle",
    "address": "Kapuzinerstraße 75",
    "postalCode": "94032",
    "city": "Passau-Innstadt",
    "country": "Germany",
    "phone": "+49 9451 943190",
    "email": "",
    "website": "",
    "tags": [
      "Messe am Sonntag"
    ]
  },
  {
    "lat": 47.6569,
    "lng": 10.36483,
    "name": "Bodelsberg - Kapelle Unbeflecktes Herz Mariä",
    "address": "Bundesstraße 309",
    "postalCode": "87477",
    "city": "Sulzberg - Bodelsberg",
    "country": "Germany",
    "phone": "+49 8376 84 58",
    "email": "",
    "website": "",
    "tags": [
      "Messe am Sonntag"
    ]
  },
  {
    "lat": 18.75929,
    "lng": -70.01694,
    "name": "Ntra. Sra. de Alta Gracia",
    "address": "",
    "postalCode": "",
    "city": "Los Mosquitos",
    "country": "Dominican Republic",
    "phone": "+1 829 438 78 76",
    "email": "",
    "website": "https://www.fsspx-sudamerica.org/",
    "tags": [
      "Misa dominical"
    ]
  },
  {
    "lat": 49.52784,
    "lng": 8.56998,
    "name": "Viernheim - Kapelle Hl. Josef",
    "address": "Bürgermeister-Neff-Str. 15",
    "postalCode": "68519",
    "city": "Viernheim",
    "country": "Germany",
    "phone": "+49 681 85 45 88",
    "email": "",
    "website": "",
    "tags": [
      "Messe am Sonntag"
    ]
  },
  {
    "lat": 49.21922,
    "lng": 7.01337,
    "name": "Saarbrücken - Priorat St. Maria zu den Engeln",
    "address": "Julius-Kiefer-Straße 11",
    "postalCode": "66119",
    "city": "Saarbrücken",
    "country": "Germany",
    "phone": "+49 681 85 45 88",
    "email": "",
    "website": "",
    "tags": [
      "Priesterresidenz",
      "Messe am Sonntag",
      "Messe am Wochentag"
    ]
  },
  {
    "lat": 53.60615,
    "lng": 10.00147,
    "name": "Hamburg - Kapelle Hl. Theresia von Avila",
    "address": "Alsterdorfer Str. 210",
    "postalCode": "22297",
    "city": "Hamburg-Alsterdorf",
    "country": "Germany",
    "phone": "+49 30 89 73 23 36",
    "email": "",
    "website": "",
    "tags": [
      "Priesterresidenz",
      "Messe am Sonntag"
    ]
  },
  {
    "lat": 50.7437,
    "lng": 7.08991,
    "name": "Bonn - Priorat Christ-König",
    "address": "Kaiser-Karl-Ring 32 a",
    "postalCode": "53111",
    "city": "Bonn",
    "country": "Germany",
    "phone": "+49 228 67 91 51",
    "email": "",
    "website": "",
    "tags": [
      "Priesterresidenz",
      "Messe am Sonntag",
      "Messe am Wochentag"
    ]
  },
  {
    "lat": 52.39585,
    "lng": 9.63488,
    "name": "Hannover - Kapelle Hl. Ansgar",
    "address": "Lange Feld Str. 63",
    "postalCode": "30926",
    "city": "Seelze-Letter",
    "country": "Germany",
    "phone": "+49 30 89 73 23 36",
    "email": "",
    "website": "",
    "tags": [
      "Messe am Sonntag"
    ]
  },
  {
    "lat": 49.89165,
    "lng": 10.89451,
    "name": "Bamberg - Kapelle Hl. Kaiser Heinrich",
    "address": "Friedrichstr. 13",
    "postalCode": "96047",
    "city": "Bamberg",
    "country": "Germany",
    "phone": "+49 9451 94 31 90",
    "email": "",
    "website": "",
    "tags": [
      "Messe am Sonntag"
    ]
  },
  {
    "lat": 51.04253,
    "lng": 13.68688,
    "name": "Dresden - Kapelle Maria Rosenkranzkönigin",
    "address": "Kesselsdorfer Str. 90a",
    "postalCode": "01159",
    "city": "Dresden",
    "country": "Germany",
    "phone": "+49 30 89 73 23 36",
    "email": "",
    "website": "",
    "tags": [
      "Messe am Sonntag"
    ]
  },
  {
    "lat": 50.56166,
    "lng": 9.66314,
    "name": "Fulda - Mutter von der Immerwährenden Hilfe",
    "address": "Horaser Weg 99",
    "postalCode": "36039",
    "city": "Fulda",
    "country": "Germany",
    "phone": "+49 6022 20 89 83 4",
    "email": "",
    "website": "",
    "tags": [
      "Messe am Sonntag"
    ]
  },
  {
    "lat": 48.00514,
    "lng": 10.16379,
    "name": "Memmingen - Kirche St. Josef",
    "address": "Teramostr. 2a",
    "postalCode": "87700",
    "city": "Memmingen",
    "country": "Germany",
    "phone": "+49 8331 49 49 84",
    "email": "",
    "website": "https://memmingen.fsspx.de/de",
    "tags": [
      "Messe am Sonntag"
    ]
  },
  {
    "lat": 49.8545,
    "lng": 9.179,
    "name": "Kleinwallstadt - Priorat Hl. Judas Thaddäus",
    "address": "St.-Judas-Thaddäus-Weg 1",
    "postalCode": "63839",
    "city": "Kleinwallstadt",
    "country": "Germany",
    "phone": "+49 6022 208 98 34",
    "email": "",
    "website": "",
    "tags": [
      "Priesterresidenz",
      "Messe am Sonntag",
      "Messe am Wochentag"
    ]
  },
  {
    "lat": 51.67954,
    "lng": 8.34037,
    "name": "Lippstadt - Kapelle vom Guten Hirten",
    "address": "Am Nordbahnhof 20",
    "postalCode": "59555",
    "city": "Lippstadt",
    "country": "Germany",
    "phone": "+49 201 66 49 22",
    "email": "",
    "website": "",
    "tags": [
      "Messe am Sonntag"
    ]
  },
  {
    "lat": 49.4397,
    "lng": 10.96147,
    "name": "Nürnberg/Zirndorf - Kapelle Unbefleckte Empfängnis",
    "address": "Angerzeile, 14",
    "postalCode": "90513",
    "city": "Nürnberg-Zirndorf",
    "country": "Germany",
    "phone": "+49 9451 94 31 90",
    "email": "",
    "website": "",
    "tags": [
      "Messe am Sonntag"
    ]
  },
  {
    "lat": 50.06833,
    "lng": 8.48797,
    "name": "Hattersheim - Kapelle St. Athanasius",
    "address": "Schulstraße 7",
    "postalCode": "65795",
    "city": "Hattersheim",
    "country": "Germany",
    "phone": "+49 6022 20 89 83 4",
    "email": "",
    "website": "",
    "tags": [
      "Messe am Sonntag"
    ]
  },
  {
    "lat": 42.83962,
    "lng": -2.66465,
    "name": "Capilla de Los Sagrados Corazones",
    "address": "Dantzari Plaza, 8",
    "postalCode": "01006",
    "city": "Vitoria",
    "country": "Spain",
    "phone": "+34 91 812 28 81",
    "email": "",
    "website": "https://www.fsspx.es/",
    "tags": [
      "Misa dominical"
    ]
  },
  {
    "lat": 40.24465,
    "lng": -3.99749,
    "name": "Casa San José",
    "address": "Carretera M404 Navalcarnero a Chinchón Km. 4,2",
    "postalCode": "28607",
    "city": "El Álamo, Madrid",
    "country": "Spain",
    "phone": "+34 91 812 28 81",
    "email": "",
    "website": "https://www.fsspx.es/",
    "tags": [
      "Casa de distrito",
      "Residencia de sacerdotes"
    ]
  },
  {
    "lat": 40.22171,
    "lng": -3.90661,
    "name": "Siervas de Jesús Sacerdote y del Corazón de María",
    "address": "Convento de San José",
    "postalCode": "45950",
    "city": "Casarrubios del Monte",
    "country": "Spain",
    "phone": "",
    "email": "",
    "website": "https://www.fsspx.es/",
    "tags": [
      "Misa dominical",
      "Misa entre semana",
      "Convento"
    ]
  },
  {
    "lat": 28.09879,
    "lng": -15.41596,
    "name": "Las Palmas",
    "address": "",
    "postalCode": "35000",
    "city": "Las Palmas de Gran Canaria",
    "country": "Spain",
    "phone": "+34 91 812 28 81",
    "email": "",
    "website": "https://www.fsspx.es/",
    "tags": [
      "Misa dominical"
    ]
  },
  {
    "lat": 41.38121,
    "lng": 2.13598,
    "name": "Capilla de Nuestra Señora de la Merced",
    "address": "Carrer Vallespir, 118",
    "postalCode": "08014",
    "city": "Barcelona",
    "country": "Spain",
    "phone": "+34 644 738 658",
    "email": "info.es@fsspx.email",
    "website": "https://www.fsspx.es/",
    "tags": [
      "Misa dominical",
      "Misa entre semana"
    ]
  },
  {
    "lat": 40.40092,
    "lng": -3.67202,
    "name": "Capilla Santiago Apostol",
    "address": "Calle Catalina Suárez 16 bis",
    "postalCode": "28007",
    "city": "Madrid",
    "country": "Spain",
    "phone": "+34 91 22 11 155",
    "email": "",
    "website": "https://www.fsspx.es/",
    "tags": [
      "Misa dominical",
      "Misa entre semana"
    ]
  },
  {
    "lat": 40.9661,
    "lng": -5.66476,
    "name": "Iglesia San Benito",
    "address": "Plaza San Benito",
    "postalCode": "37002",
    "city": "Salamanque",
    "country": "Spain",
    "phone": "+34 91 812 28 81",
    "email": "",
    "website": "https://www.fsspx.es/",
    "tags": [
      "Misa dominical"
    ]
  },
  {
    "lat": 59.37221,
    "lng": 24.64319,
    "name": "Church of the Immaculate Heart of Mary",
    "address": "Pärnu mnt. 397",
    "postalCode": "10914",
    "city": "Tallinn",
    "country": "Estonia",
    "phone": "+372 5309 0650",
    "email": "safidelitas@gmail.com",
    "website": "https://www.fsspx.ee",
    "tags": [
      "Sunday Mass",
      "Weekday Mass"
    ]
  },
  {
    "lat": 37.15661,
    "lng": -3.59706,
    "name": "Capilla Maria Reina",
    "address": "Placeta Gutierre de Cetina, 32",
    "postalCode": "18007",
    "city": "Granada",
    "country": "Spain",
    "phone": "+34 91 812 28 81",
    "email": "",
    "website": "https://www.fsspx.es/",
    "tags": [
      "Misa dominical",
      "Misa entre semana"
    ]
  },
  {
    "lat": 39.58222,
    "lng": 2.64822,
    "name": "Mallorca",
    "address": "",
    "postalCode": "07003",
    "city": "Palma de Mallorca",
    "country": "Spain",
    "phone": "+34 91 812 28 81",
    "email": "info.es@fsspx.email",
    "website": "https://www.fsspx.es/",
    "tags": []
  },
  {
    "lat": 36.43327,
    "lng": -5.17309,
    "name": "Capilla San José",
    "address": "C.C. Isdabe del Sol, local 8",
    "postalCode": "29680",
    "city": "Estepona",
    "country": "Spain",
    "phone": "+34 91 812 28 81",
    "email": "",
    "website": "https://fsspx.es",
    "tags": [
      "Misa entre semana"
    ]
  },
  {
    "lat": 48.52662,
    "lng": 7.32233,
    "name": "Prieuré Saint Florent, Urmatt",
    "address": "93 rue du Général de Gaulle",
    "postalCode": "67280",
    "city": "Urmatt",
    "country": "France",
    "phone": "+33 9 60 40 01 77",
    "email": "67p.urmatt@fsspx.fr",
    "website": "https://laportelatine.org/lieux/prieure-saint-florent-urmatt",
    "tags": [
      "Résidence de prêtres"
    ]
  },
  {
    "lat": 45.92776,
    "lng": 4.73564,
    "name": "Église Saint-Cyr, Anse",
    "address": "Ambérieux d'Azergues",
    "postalCode": "69480",
    "city": "Anse",
    "country": "France",
    "phone": "+33 4 27 01 70 77",
    "email": "",
    "website": "https://laportelatine.org/lieux/couvent-saint-francois-morgon/eglise-saint-cyr-anse",
    "tags": [
      "Messe dominicale"
    ]
  },
  {
    "lat": 49.422,
    "lng": 2.83628,
    "name": "Église sainte-Thérèse, Compiègne",
    "address": "85, rue du Bataillon de France",
    "postalCode": "60200",
    "city": "Compiègne",
    "country": "France",
    "phone": "+33 3 44 88 55 32",
    "email": "",
    "website": "https://laportelatine.org/lieux/maison-saint-pie-x-siege-du-district-de-france-suresnes/eglise-sainte-therese-compiegne",
    "tags": [
      "Messe dominicale"
    ]
  },
  {
    "lat": 43.46758,
    "lng": -1.45768,
    "name": "Chapelle Notre-Dame des Naufragés, Villefranque",
    "address": "Chemin Bellevue",
    "postalCode": "64990",
    "city": "Villefranque",
    "country": "France",
    "phone": "+33 5 59 65 70 05",
    "email": "",
    "website": "https://laportelatine.org/lieux/ecole-saint-michel-garricoits-chateau-oihenartia-etcharry/chapelle-notre-dame-des-naufrages-villefranque",
    "tags": [
      "Messe dominicale"
    ]
  },
  {
    "lat": 48.75339,
    "lng": -0.57053,
    "name": "Chapelle Saint-Jean-Eudes, Flers",
    "address": "13, rue Charles Mousset",
    "postalCode": "61100",
    "city": "Flers",
    "country": "France",
    "phone": "+33 2 31 08 03 85",
    "email": "",
    "website": "https://laportelatine.org/lieux/prieure-saint-jean-eudes-gavrus/chapelle-saint-jean-eudes-flers",
    "tags": [
      "Messe dominicale"
    ]
  },
  {
    "lat": 45.82524,
    "lng": 1.26676,
    "name": "Chapelle Saint-Martial, Limoges",
    "address": "7, rue Guillaumin",
    "postalCode": "87000",
    "city": "Limoges",
    "country": "France",
    "phone": "+33 2 54 37 40 04",
    "email": "",
    "website": "https://laportelatine.org/lieux/fraternite-de-la-transfiguration-merigny/chapelle-saint-martial-limoges",
    "tags": [
      "Messe dominicale",
      "Messe en semaine"
    ]
  },
  {
    "lat": 47.40778,
    "lng": 3.23306,
    "name": "Cours Notre-Dame de la Sainte Espérance, Couloutre",
    "address": "1 le Château",
    "postalCode": "58220",
    "city": "Couloutre",
    "country": "France",
    "phone": "+33 3 86 24 00 46",
    "email": "",
    "website": "https://www.scholae-fanjeaux.org/etablissements/couloutre/",
    "tags": [
      "Messe dominicale",
      "Messe en semaine"
    ]
  },
  {
    "lat": 46.45029,
    "lng": 4.12737,
    "name": "Chapelle Sainte-Marguerite-Marie du Sacré-Cœur, Paray-le-Monial",
    "address": "24, avenue de Charolles",
    "postalCode": "71600",
    "city": "Paray-le-Monial",
    "country": "France",
    "phone": "+33 4 70 58 21 01",
    "email": "",
    "website": "https://laportelatine.org/lieux/prieure-notre-dame-du-pointet-brout-vernet/chapelle-sainte-marguerite-marie-du-sacre-coeur-paray-le-monial",
    "tags": [
      "Messe dominicale",
      "Messe en semaine"
    ]
  },
  {
    "lat": 48.44098,
    "lng": -2.03442,
    "name": "Prieuré Sainte-Anne, Lanvallay",
    "address": "82, Avenue de Beauvais",
    "postalCode": "22100",
    "city": "Lanvallay",
    "country": "France",
    "phone": "+33 2 96 39 56 70",
    "email": "",
    "website": "https://laportelatine.org/lieux/prieure-sainte-anne-lanvallay",
    "tags": [
      "Résidence de prêtres",
      "Messe dominicale",
      "Messe en semaine"
    ]
  },
  {
    "lat": 45.78012,
    "lng": 4.46099,
    "name": "École de la Péraudière, Montrottier",
    "address": "",
    "postalCode": "69770",
    "city": "Montrottier",
    "country": "France",
    "phone": "+33 474 70 13 26",
    "email": "",
    "website": "https://laportelatine.org/lieux/ecole-de-la-peraudiere-montrottier",
    "tags": [
      "Messe dominicale",
      "Messe en semaine"
    ]
  },
  {
    "lat": 42.71111,
    "lng": 2.88978,
    "name": "Prieuré du Christ-Roi, Perpignan",
    "address": "113, Avenue Joffre",
    "postalCode": "66000",
    "city": "Perpignan",
    "country": "France",
    "phone": "+33 9 86 30 83 34",
    "email": "",
    "website": "https://laportelatine.org/lieux/prieure-saint-francois-de-sales-fabregues/prieure-du-christ-roi-perpignan",
    "tags": [
      "Messe dominicale",
      "Messe en semaine"
    ]
  },
  {
    "lat": 50.37294,
    "lng": 2.64003,
    "name": "École Saint-Jean-Baptiste-de-la-Salle, Camblain-l'Abbé",
    "address": "5 rue du Perroy",
    "postalCode": "62690",
    "city": "Camblain-l'Abbé",
    "country": "France",
    "phone": "+33 3 21 22 00 04",
    "email": "",
    "website": "https://laportelatine.org/lieux/ecole-saint-jean-baptiste-de-la-salle-camblain-labbe/ecole-saint-jean-baptiste-de-la-salle-camblain-labbe",
    "tags": [
      "Résidence de prêtres",
      "Messe dominicale",
      "Messe en semaine"
    ]
  },
  {
    "lat": 45.08897,
    "lng": 0.63397,
    "name": "Fraternité Notre-Dame du Rosaire, Saint Paul-de-Serre",
    "address": "105 route du Rossignol",
    "postalCode": "24380",
    "city": "Saint-Paul-de-Serre",
    "country": "France",
    "phone": "+33 9 63 60 89 19",
    "email": "",
    "website": "https://dominicains-rosarium.fr/",
    "tags": [
      "Messe dominicale",
      "Monastère"
    ]
  },
  {
    "lat": 46.13121,
    "lng": 3.41721,
    "name": "Chapelle du Sacré-Cœur, Vichy",
    "address": "17 rue des Pyrénées",
    "postalCode": "03200",
    "city": "Vichy",
    "country": "France",
    "phone": "+33 4 70 58 21 01",
    "email": "",
    "website": "https://laportelatine.org/lieux/prieure-notre-dame-du-pointet-brout-vernet/chapelle-du-sacre-coeur-vichy",
    "tags": [
      "Messe dominicale",
      "Messe en semaine"
    ]
  },
  {
    "lat": 43.31586,
    "lng": 5.44894,
    "name": "Prieuré Saint-Ferréol, Marseille",
    "address": "40 chemin de Fondacle",
    "postalCode": "13012",
    "city": "Marseille - Saint-Julien",
    "country": "France",
    "phone": "+33 4 91 87 00 50",
    "email": "13p.marseille@fsspx.fr",
    "website": "https://laportelatine.org/lieux/prieure-saint-ferreol-marseille",
    "tags": [
      "Résidence de prêtres",
      "Messe en semaine"
    ]
  },
  {
    "lat": 49.49938,
    "lng": 0.1396,
    "name": "Chapelle Saint-Grégoire-le-Grand, Le Havre",
    "address": "54 bis, rue Malherbe",
    "postalCode": "76600",
    "city": "Le Havre",
    "country": "France",
    "phone": "+33 2 35 89 97 97",
    "email": "",
    "website": "https://laportelatine.org/lieux/prieure-sainte-therese-eglise-saint-francois-de-sales-rouen/chapelle-saint-gregoire-le-grand-le-havre",
    "tags": [
      "Messe dominicale",
      "Messe en semaine"
    ]
  },
  {
    "lat": 43.55063,
    "lng": 3.77479,
    "name": "Prieuré Saint-François de Sales, Fabrègues",
    "address": "1 rue Neuve-des-Horts",
    "postalCode": "34690",
    "city": "Fabrègues",
    "country": "France",
    "phone": "+33 9 81 28 28 05",
    "email": "34p.fabregues@fsspx.fr",
    "website": "https://laportelatine.org/lieux/prieure-saint-francois-de-sales-fabregues",
    "tags": [
      "Résidence de prêtres",
      "Messe dominicale",
      "Messe en semaine"
    ]
  },
  {
    "lat": 49.62208,
    "lng": -1.26207,
    "name": "Chapelle Saint-Eloi, Réville",
    "address": "",
    "postalCode": "50760",
    "city": "Réville",
    "country": "France",
    "phone": "+33 2 31 08 03 85",
    "email": "",
    "website": "https://laportelatine.org/lieux/prieure-saint-jean-eudes-gavrus/chapelle-saint-eloi-reville",
    "tags": [
      "Messe dominicale"
    ]
  },
  {
    "lat": 43.21656,
    "lng": 2.18638,
    "name": "École Saint-Joseph-des-Carmes, Montréal-de-l'Aude",
    "address": "Domaine des Carmes (D119)",
    "postalCode": "11290",
    "city": "Montréal-de-l'Aude",
    "country": "France",
    "phone": "+33 4 68 76 25 40",
    "email": "",
    "website": "https://laportelatine.org/lieux/ecole-st-joseph-des-carmes-montreal-de-laude",
    "tags": [
      "Résidence de prêtres",
      "Messe dominicale",
      "Messe en semaine"
    ]
  },
  {
    "lat": 48.42272,
    "lng": 0.09078,
    "name": "Chapelle Notre-Dame du Sacré-Cœur, Alençon",
    "address": "15, avenue Rhin et Danube",
    "postalCode": "61000",
    "city": "Alençon",
    "country": "France",
    "phone": "+33 2 43 98 74 63",
    "email": "",
    "website": "https://laportelatine.org/lieux/prieure-notre-dame-du-sacre-coeur-beaumont-pied-de-boeuf-moulin-du-pin/chapelle-notre-dame-du-sacre-coeur-alencon",
    "tags": [
      "Messe dominicale",
      "Messe en semaine"
    ]
  },
  {
    "lat": 49.77089,
    "lng": 4.72392,
    "name": "Chapelle Saint-Walfroy, Charleville-Mézières",
    "address": "20, Rue de Clèves",
    "postalCode": "08000",
    "city": "Charleville-Mézières",
    "country": "France",
    "phone": "+33 3 26 61 70 71",
    "email": "",
    "website": "https://laportelatine.org/lieux/prieure-notre-dame-de-fatima-reims-prunay/chapelle-saint-walfroy-charleville-mezieres",
    "tags": [
      "Messe dominicale",
      "Messe en semaine"
    ]
  },
  {
    "lat": 45.53604,
    "lng": 3.25102,
    "name": "Chapelle Notre-Dame de France, Issoire",
    "address": "24, Rue St. Pierre",
    "postalCode": "63500",
    "city": "Issoire",
    "country": "France",
    "phone": "+33 4 73 39 11 98",
    "email": "",
    "website": "https://laportelatine.org/lieux/prieure-de-lenfant-jesus-plauzat/chapelle-notre-dame-de-france-issoire",
    "tags": [
      "Messe dominicale",
      "Messe en semaine"
    ]
  },
  {
    "lat": 47.75117,
    "lng": 7.35604,
    "name": "Prieuré Marie-Reine, Mulhouse",
    "address": "195 rue de Bâle",
    "postalCode": "68100",
    "city": "Mulhouse",
    "country": "France",
    "phone": "+33 3 89 44 66 93",
    "email": "",
    "website": "https://laportelatine.org/lieux/prieure-marie-reine-mulhouse",
    "tags": [
      "Résidence de prêtres",
      "Messe dominicale",
      "Messe en semaine"
    ]
  },
  {
    "lat": 46.20366,
    "lng": 3.26559,
    "name": "Prieuré Notre-Dame-du-Pointet, Broût-Vernet",
    "address": "35 route du Village d'Escolles",
    "postalCode": "03110",
    "city": "Broût-Vernet",
    "country": "France",
    "phone": "+33 4 70 58 21 01",
    "email": "fsspx03@gmail.com",
    "website": "https://laportelatine.org/lieux/prieure-notre-dame-du-pointet-brout-vernet",
    "tags": [
      "Résidence de prêtres",
      "Maison de retraite",
      "Messe dominicale",
      "Messe en semaine"
    ]
  },
  {
    "lat": 47.12221,
    "lng": -1.44867,
    "name": "Chapelle de l'école Saint-Martin, La Placelière",
    "address": "La Placelière",
    "postalCode": "44690",
    "city": "Château-Thébaud",
    "country": "France",
    "phone": "+33 2 40 56 85 26",
    "email": "",
    "website": "https://laportelatine.org/lieux/prieure-saint-louis-nantes/chapelle-de-lecole-saint-martin-la-placeliere",
    "tags": [
      "Messe dominicale",
      "Messe en semaine"
    ]
  },
  {
    "lat": 47.26559,
    "lng": 4.55416,
    "name": "Cours Saint-Dominique, Pouilly-en-Auxois",
    "address": "1, rue de Velard",
    "postalCode": "21320",
    "city": "Pouilly-en-Auxois",
    "country": "France",
    "phone": "+33 3 80 90 83 34",
    "email": "",
    "website": "https://laportelatine.org/lieux/seminaire-saint-cure-dars-flavigny-sur-ozerain/cours-saint-dominique-pouilly-en-auxois",
    "tags": [
      "Messe dominicale",
      "Messe en semaine"
    ]
  },
  {
    "lat": 43.40052,
    "lng": 6.00868,
    "name": "Cours Saint-Dominique, Brignoles",
    "address": "Saint-Pré",
    "postalCode": "83170",
    "city": "La Celle",
    "country": "France",
    "phone": "+33 4 94 69 12 24",
    "email": "",
    "website": "https://laportelatine.org/lieux/prieure-saint-maximin-toulon/cours-saint-dominique-la-celle-brignolles",
    "tags": [
      "Messe dominicale",
      "Messe en semaine"
    ]
  },
  {
    "lat": 48.6757,
    "lng": 6.18368,
    "name": "Chapelle du Sacré-Cœur",
    "address": "65, rue du Maréchal Oudinot",
    "postalCode": "54000",
    "city": "Nancy",
    "country": "France",
    "phone": "+33 9 75 64 56 83",
    "email": "",
    "website": "https://laportelatine.org/lieux/prieure-saint-nicolas-chapelle-sacre-coeur-nancy",
    "tags": [
      "Messe dominicale",
      "Messe en semaine"
    ]
  },
  {
    "lat": 48.52247,
    "lng": -2.78567,
    "name": "Chapelle saint-Hilaire, Saint-Brieuc",
    "address": "48, Rue de Brocéliande",
    "postalCode": "22000",
    "city": "Saint-Brieuc",
    "country": "France",
    "phone": "+33 2 96 39 56 70",
    "email": "",
    "website": "https://laportelatine.org/lieux/prieure-sainte-anne-lanvallay/chapelle-saint-hilaire-saint-brieuc",
    "tags": [
      "Messe dominicale",
      "Messe en semaine"
    ]
  },